titulo,zona,latitud,longitud,direccion_usada,geocoding_ok
"Piso en calle de San Marcelo, 22, Ventas, Madrid",ciudad-lineal,40.4269541,-3.655905,"calle de San Marcelo, 22, Ventas, Madrid, España",True
"Piso en calle Cabo Nicolás Mur, San Isidro, Madrid",carabanchel,40.3948877,-3.7334918,"calle Cabo Nicolás Mur, San Isidro, Madrid, España",True
"Piso en calle de Rodas, Lavapiés-Embajadores, Madrid",centro,40.0626875,-3.5995729,"calle de Rodas, Madrid, España",True
"Piso en calle de Ferroviarios, Almendrales, Madrid",usera,40.3836301,-3.7047708,"calle de Ferroviarios, Almendrales, Madrid, España",True
"Dúplex en Bellas Vistas, Madrid",tetuan,40.4526848,-3.7072396,"Bellas Vistas, Madrid, España",True
"Piso en Mazarredo, 18, Imperial, Madrid",arganzuela,40.4129316,-3.7183856,"Mazarredo, 18, Imperial, Madrid, España",True
"Piso en calle de Núñez de Balboa, Recoletos, Madrid",barrio-de-salamanca,40.4276778,-3.6825696,"calle de Núñez de Balboa, Recoletos, Madrid, España",True
"Piso en calle de Rodríguez Espinosa, s/n, Palomeras Bajas, Madrid",puente-de-vallecas,40.3853367,-3.6579829,"Palomeras Bajas, Madrid, España",True
"Chalet adosado en calle de la Isla de Alegranza, 51, Ciudad Universitaria, Madrid",moncloa,40.4438005,-3.7264206,"Ciudad Universitaria, Madrid, España",True
"Piso en Blanca de Navarra, 4, Almagro, Madrid",chamberi,40.428839,-3.6928355,"Blanca de Navarra, 4, Almagro, Madrid, España",True
"Piso en calle de Jaime el Conquistador, Chopera, Madrid",arganzuela,40.3983046,-3.6978545,"calle de Jaime el Conquistador, Chopera, Madrid, España",True
"Chalet adosado en paseo de los Cerezos, Bernabéu-Hispanoamérica, Madrid",chamartin,40.453057,-3.6883531,"Bernabéu-Hispanoamérica, Madrid, España",True
"Piso en calle Horizón, 3, Orcasitas, Madrid",usera,40.3651146,-3.7084991,"calle Horizón, 3, Orcasitas, Madrid, España",True
"Piso en calle del Vizconde de Matamala, 26, Fuente del Berro, Madrid",barrio-de-salamanca,40.4259702,-3.6634566,"calle del Vizconde de Matamala, 26, Fuente del Berro, Madrid, España",True
"Piso en calle Pico de la Maliciosa, Numancia, Madrid",puente-de-vallecas,40.3934887,-3.6571645,"calle Pico de la Maliciosa, Numancia, Madrid, España",True
"Piso en calle de Sáhara, 46, Los Rosales, Madrid",villaverde,40.3571948,-3.6894484,"Los Rosales, Madrid, España",True
"Piso en calle de Goya, Goya, Madrid",barrio-de-salamanca,40.4248256,-3.6764798,"calle de Goya, Goya, Madrid, España",True
"Piso en calle de la Isla de Sumatra, 51, Tres Olivos - Valverde, Madrid",fuencarral,40.4953796,-3.6855794,"calle de la Isla de Sumatra, 51, Madrid, España",True
"Piso en calle del Doctor Castelo, Ibiza, Madrid",retiro,40.4201916,-3.6726466,"calle del Doctor Castelo, Ibiza, Madrid, España",True
"Piso en calle de Medellín, Trafalgar, Madrid",chamberi,40.436301,-3.7000381,"calle de Medellín, Trafalgar, Madrid, España",True
"Piso en calle del Corregidor Señor de la Elipa, Marroquina, Madrid",moratalaz,40.4104727,-3.6513383,"calle del Corregidor Señor de la Elipa, Marroquina, Madrid, España",True
"Piso en Lista, Madrid",barrio-de-salamanca,40.4326938,-3.6745087,"Lista, Madrid, España",True
"Piso en calle de Marcenado, Ciudad Jardín, Madrid",chamartin,40.4469302,-3.6732524,"calle de Marcenado, Ciudad Jardín, Madrid, España",True
"Ático en Aravaca, Madrid",moncloa,40.457749,-3.7827941,"Aravaca, Madrid, España",True
"Piso en calle del Prado, Huertas-Cortes, Madrid",centro,40.4144654,-3.7007588,"calle del Prado, Madrid, España",True
"Piso en Buena Vista, Madrid",carabanchel,40.3652536,-3.7513648,"Buena Vista, Madrid, España",True
"Piso en calle de Caleruega, 51, Costillares, Madrid",ciudad-lineal,40.481261,-3.6721657,"calle de Caleruega, 51, Costillares, Madrid, España",True
"Piso en avenida de Pío XII, Castilla, Madrid",chamartin,40.472933,-3.6768589,"avenida de Pío XII, Castilla, Madrid, España",True
"Piso en calle de Ávila, Cuatro Caminos, Madrid",tetuan,40.4526826,-3.7005423,"calle de Ávila, Cuatro Caminos, Madrid, España",True
"Piso en calle Mayor, Palacio, Madrid",centro,40.4152079,-3.712365,"calle Mayor, Palacio, Madrid, España",True
"Chalet adosado en calle Pilar de Andrade. 23 -, 25, El Plantío, Madrid",moncloa,40.4700616,-3.8206858,"El Plantío, Madrid, España",True
"Piso en calle de Castelló, Castellana, Madrid",barrio-de-salamanca,40.4331201,-3.6808697,"calle de Castelló, Castellana, Madrid, España",True
"Piso en calle del León, Huertas-Cortes, Madrid",centro,40.4142817,-3.6987325,"calle del León, Madrid, España",True
"Piso en calle de Ayala, Goya, Madrid",barrio-de-salamanca,40.4274919,-3.6791713,"calle de Ayala, Goya, Madrid, España",True
"Ático en Almagro, Madrid",chamberi,40.4336632,-3.6942857,"Almagro, Madrid, España",True
"Piso en calle Azagra, 14, Pinar del Rey, Madrid",hortaleza,40.4750689,-3.6469202,"calle Azagra, 14, Pinar del Rey, Madrid, España",True
"Piso en avenida de Niceto Alcalá Zamora, Sanchinarro, Madrid",hortaleza,40.4961565,-3.6518853,"avenida de Niceto Alcalá Zamora, Sanchinarro, Madrid, España",True
"Piso en calle de Hermosilla, Recoletos, Madrid",barrio-de-salamanca,40.4262948,-3.6832676,"calle de Hermosilla, Recoletos, Madrid, España",True
"Piso en calle de Diego de León, Lista, Madrid",barrio-de-salamanca,40.434709,-3.6785686,"calle de Diego de León, Lista, Madrid, España",True
"Piso en avenida de Hellín, Hellín, Madrid",san-blas,40.4314412,-3.6159824,"avenida de Hellín, Hellín, Madrid, España",True
"Piso en calle de Segovia, Imperial, Madrid",arganzuela,40.4139698,-3.7207156,"calle de Segovia, Imperial, Madrid, España",True
"Estudio en calle de la Princesa, 12, Malasaña-Universidad, Madrid",centro,40.4257748,-3.7125606,"calle de la Princesa, 12, Madrid, España",True
"Piso en calle de Cardenal Mendoza, Puerta del Ángel, Madrid",latina,40.4093544,-3.7337422,"Puerta del Ángel, Madrid, España",True
"Piso en de Evangelina Sobredo Galanes, s/n, Valdemarín, Madrid",moncloa,40.4632606,-3.7725203,"de Evangelina Sobredo Galanes, Madrid, España",True
"Piso en calle del General Ricardos, Opañel, Madrid",carabanchel,40.3907917,-3.7283143,"calle del General Ricardos, Opañel, Madrid, España",True
"Piso en calle de Tablada, Berruguete, Madrid",tetuan,40.4602916,-3.7016321,"calle de Tablada, Berruguete, Madrid, España",True
"Casa o chalet independiente en calle Castillo de Aysa, Conde Orgaz-Piovera, Madrid",hortaleza,40.4566911,-3.6475883,"Conde Orgaz-Piovera, Madrid, España",True
"Ático en calle del León, 10, Huertas-Cortes, Madrid",centro,40.4141449,-3.6989258,"calle del León, 10, Madrid, España",True
"Dúplex en calle de Embajadores, Lavapiés-Embajadores, Madrid",centro,40.4063191,-3.7033037,"calle de Embajadores, Lavapiés-Embajadores, Madrid, España",True
"Piso en calle de Villaamil, 41, Berruguete, Madrid",tetuan,40.459365,-3.7075498,"calle de Villaamil, 41, Berruguete, Madrid, España",True
"Piso en Argüelles, Madrid",moncloa,40.4307266,-3.7161715,"Argüelles, Madrid, España",True
"Ático en Comillas, Madrid",carabanchel,40.3937574,-3.7116516,"Comillas, Madrid, España",True
"Piso en Alonso Cano, 68, Nuevos Ministerios-Ríos Rosas, Madrid",chamberi,40.4423982,-3.6974621,"Alonso Cano, 68, Madrid, España",True
"Piso en calle Gustavo Pérez Puig, s/n, Valdebebas - Valdefuentes, Madrid",hortaleza,40.4899361,-3.6065757,"calle Gustavo Pérez Puig, Madrid, España",True
"Piso en Recoletos, Madrid",barrio-de-salamanca,40.4243637,-3.6857429,"Recoletos, Madrid, España",True
"Piso en calle de Pedro de Valdivia, El Viso, Madrid",chamartin,40.4390638,-3.6890282,"calle de Pedro de Valdivia, El Viso, Madrid, España",True
"Piso en calle de Francisco Madariaga, 16, Pueblo Nuevo, Madrid",ciudad-lineal,40.4348524,-3.6414886,"calle de Francisco Madariaga, 16, Pueblo Nuevo, Madrid, España",True
"Piso en calle de Amado Nervo, Niño Jesús, Madrid",retiro,40.4093292,-3.6746037,"calle de Amado Nervo, Niño Jesús, Madrid, España",True
"Piso en calle de Bravo Murillo, Cuatro Caminos, Madrid",tetuan,40.4505343,-3.7034376,"calle de Bravo Murillo, Cuatro Caminos, Madrid, España",True
"Piso en Nueva España, Madrid",chamartin,40.4625939,-3.6787346,"Nueva España, Madrid, España",True
"Piso en calle del Divino Pastor, Malasaña-Universidad, Madrid",centro,40.4276387,-3.7039648,"calle del Divino Pastor, Malasaña-Universidad, Madrid, España",True
"Piso en calle Antonio López Aguado, 9, La Paz, Madrid",fuencarral,40.4814786,-3.702755,"calle Antonio López Aguado, 9, La Paz, Madrid, España",True
"Piso en calle de Fernando el Católico, Gaztambide, Madrid",chamberi,40.4341362,-3.7112885,"calle de Fernando el Católico, Gaztambide, Madrid, España",True
"Piso en calle de Espronceda, Nuevos Ministerios-Ríos Rosas, Madrid",chamberi,40.4405476,-3.6959013,"calle de Espronceda, Madrid, España",True
"Piso en calle de Baracaldo, Valdeacederas, Madrid",tetuan,40.4702154,-3.6999212,"calle de Baracaldo, Valdeacederas, Madrid, España",True
"Ático en avenida del Doctor Arce, El Viso, Madrid",chamartin,40.4474957,-3.6805514,"avenida del Doctor Arce, El Viso, Madrid, España",True
"Casa o chalet independiente en calle Lamiaco, El Plantío, Madrid",moncloa,40.4700616,-3.8206858,"El Plantío, Madrid, España",True
"Piso en Vista Alegre, Madrid",carabanchel,40.3877922,-3.7396538,"Vista Alegre, Madrid, España",True
"Piso en calle de Fuencarral, Chueca-Justicia, Madrid",centro,40.4218831,-3.7009642,"calle de Fuencarral, Chueca-Justicia, Madrid, España",True
"Piso en Campo de las Naciones-Corralejos, Madrid",barajas,40.4733176,-3.5798446,"barajas, Madrid, España",True
"Piso en calle de Lagasca, Recoletos, Madrid",barrio-de-salamanca,40.4278008,-3.6850818,"calle de Lagasca, Recoletos, Madrid, España",True
"Piso en Malasaña-Universidad, Madrid",centro,40.4251415,-3.7078316,"Malasaña-Universidad, Madrid, España",True
"Piso en calle Dulce Chacón, 25, Virgen del Cortijo - Manoteras, Madrid",hortaleza,40.3223569,-3.7385445,"calle Dulce Chacón, 25, Madrid, España",True
"Piso en calle de Joaquín Lorenzo, Peñagrande, Madrid",fuencarral,40.4745355,-3.7290706,"calle de Joaquín Lorenzo, Peñagrande, Madrid, España",True
"Piso en avenida de Entrevías, 96, Entrevías, Madrid",puente-de-vallecas,40.3777403,-3.663649,"avenida de Entrevías, 96, Entrevías, Madrid, España",True
"Ático en calle la Escuela de Vallecas, 58, Ensanche de Vallecas - La Gavia, Madrid",villa-de-vallecas,40.3581027,-3.590023,"calle la Escuela de Vallecas, 58, Madrid, España",True
"Piso en calle de Fuentidueña, Casco Histórico de Vallecas, Madrid",villa-de-vallecas,40.3746228,-3.6234809,"calle de Fuentidueña, Casco Histórico de Vallecas, Madrid, España",True
"Piso en calle Moreno, Puerta Bonita, Madrid",carabanchel,40.3783339,-3.7407337,"calle Moreno, Puerta Bonita, Madrid, España",True
"Piso en Niño Jesús, Madrid",retiro,40.4110941,-3.6737205,"Niño Jesús, Madrid, España",True
"Dúplex en calle del Poeta Joan Maragall, Cuatro Caminos, Madrid",tetuan,40.4530336,-3.6926021,"calle del Poeta Joan Maragall, Cuatro Caminos, Madrid, España",True
"Piso en calle de los Jaramagos, Valdeacederas, Madrid",tetuan,40.4679108,-3.7034226,"Valdeacederas, Madrid, España",True
"Piso en calle de la Cal, 15, 12 de Octubre-Orcasur, Madrid",usera,40.380831,-3.6927578,"calle de la Cal, 15, Madrid, España",True
"Ático en calle de García de Paredes, Trafalgar, Madrid",chamberi,40.437111,-3.7036122,"calle de García de Paredes, Trafalgar, Madrid, España",True
"Ático en de la Democracia, 26, Santa Eugenia, Madrid",villa-de-vallecas,40.3891416,-3.6225529,"de la Democracia, 26, Santa Eugenia, Madrid, España",True
"Piso en calle del General Oraá, 69, Lista, Madrid",barrio-de-salamanca,40.435891,-3.6768482,"calle del General Oraá, 69, Lista, Madrid, España",True
"Piso en calle de los Herbolarios, Arcos, Madrid",san-blas,40.4241104,-3.6176199,"calle de los Herbolarios, Arcos, Madrid, España",True
"Ático en calle Imperial, Sol, Madrid",centro,40.414603,-3.7070337,"calle Imperial, Sol, Madrid, España",True
"Piso en calle de Juan de Vera, 4, Delicias, Madrid",arganzuela,40.3967843,-3.6900384,"Delicias, Madrid, España",True
"Piso en calle de Lombía, Goya, Madrid",barrio-de-salamanca,40.4254428,-3.6725449,"calle de Lombía, Goya, Madrid, España",True
"Ático en calle de Tomás López, Goya, Madrid",barrio-de-salamanca,40.4263993,-3.6697637,"calle de Tomás López, Goya, Madrid, España",True
"Piso en Sanchinarro, Madrid",hortaleza,40.4931887,-3.6564023,"Sanchinarro, Madrid, España",True
"Ático en calle de Don Ramón de la Cruz, Goya, Madrid",barrio-de-salamanca,40.4287653,-3.6768509,"calle de Don Ramón de la Cruz, Goya, Madrid, España",True
"Piso en Opañel, Madrid",carabanchel,40.3903949,-3.7221926,"Opañel, Madrid, España",True
"Piso en calle del Marqués de la Ensenada, Chueca-Justicia, Madrid",centro,40.4246487,-3.692479,"calle del Marqués de la Ensenada, Madrid, España",True
"Piso en Alameda de Osuna, Madrid",barajas,40.4575814,-3.5879745,"Alameda de Osuna, Madrid, España",True
"Dúplex en Jerónimos, Madrid",retiro,40.4160929,-3.6892674,"Jerónimos, Madrid, España",True
"Piso en calle Santa Engracia, 96, Almagro, Madrid",chamberi,40.4380899,-3.6999172,"calle Santa Engracia, 96, Almagro, Madrid, España",True
"Piso en calle de San Bernardo, Malasaña-Universidad, Madrid",centro,40.4291867,-3.7058848,"calle de San Bernardo, Malasaña-Universidad, Madrid, España",True
"Piso en calle de Mariano Vela, Moscardó, Madrid",usera,40.3856897,-3.7109618,"calle de Mariano Vela, Moscardó, Madrid, España",True
"Piso en calle de Francisco Silvela, Guindalera, Madrid",barrio-de-salamanca,40.4337356,-3.6734886,"calle de Francisco Silvela, Guindalera, Madrid, España",True
"Piso en calle Gómez de Arteche, s/n, Buena Vista, Madrid",carabanchel,40.3693731,-3.7554453,"calle Gómez de Arteche, Madrid, España",True
"Piso en calle Lola de Membrives, Opañel, Madrid",carabanchel,40.3964229,-3.7166855,"calle Lola de Membrives, Opañel, Madrid, España",True
"Piso en calle de Mesena, 82, Pinar del Rey, Madrid",hortaleza,40.465263,-3.6618276,"calle de Mesena, 82, Pinar del Rey, Madrid, España",True
"Piso en Sol, Madrid",centro,40.4178272,-3.7022221,"Sol, Madrid, España",True
"Ático en calle San Juan de Ortega, Las Tablas, Madrid",fuencarral,40.5084962,-3.6743144,"calle San Juan de Ortega, Las Tablas, Madrid, España",True
"Piso en calle Escandón, Villaverde Alto, Madrid",villaverde,40.3452847,-3.7102612,"calle Escandón, Villaverde Alto, Madrid, España",True
"Piso en calle del Príncipe de Vergara, Goya, Madrid",barrio-de-salamanca,40.4282213,-3.6798439,"calle del Príncipe de Vergara, Goya, Madrid, España",True
"Piso en avenida Real de Pinto, 55, Villaverde Alto, Madrid",villaverde,40.3430681,-3.7070327,"avenida Real de Pinto, 55, Villaverde Alto, Madrid, España",True
"Piso en calle de Arrieta, Palacio, Madrid",centro,40.4191259,-3.7107925,"calle de Arrieta, Palacio, Madrid, España",True
"Piso en calle de Fernández de los Ríos, 68, Gaztambide, Madrid",chamberi,40.4353554,-3.7123659,"calle de Fernández de los Ríos, 68, Gaztambide, Madrid, España",True
"Casa o chalet independiente en Peñagrande, Madrid",fuencarral,40.426213,-3.7009931,"fuencarral, Madrid, España",True
"Piso en calle de las Flautas, 46, Pau de Carabanchel, Madrid",carabanchel,40.3704427,-3.7685109,"calle de las Flautas, 46, Madrid, España",True
"Chalet pareado en calle de Vainilla, Campamento, Madrid",latina,40.3946832,-3.7682788,"Campamento, Madrid, España",True
"Chalet pareado en Peñagrande, Madrid",fuencarral,40.426213,-3.7009931,"fuencarral, Madrid, España",True
"Piso en calle del Carril de los Caleros, Aravaca, Madrid",moncloa,40.457749,-3.7827941,"Aravaca, Madrid, España",True
"Piso en calle de la Paz, Sol, Madrid",centro,40.4156837,-3.7039271,"calle de la Paz, Sol, Madrid, España",True
"Casa o chalet independiente en avenida Osa Mayor, 189, Aravaca, Madrid",moncloa,40.457749,-3.7827941,"Aravaca, Madrid, España",True
"Piso en paseo de las Delicias, 42, Palos de la Frontera, Madrid",arganzuela,40.4032401,-3.6939428,"paseo de las Delicias, 42, Palos de la Frontera, Madrid, España",True
"Ático en calle de Víctor de la Serna, Bernabéu-Hispanoamérica, Madrid",chamartin,40.4559156,-3.6703327,"calle de Víctor de la Serna, Madrid, España",True
"Piso en calle del Labrador, Acacias, Madrid",arganzuela,40.4019424,-3.7016259,"calle del Labrador, Acacias, Madrid, España",True
"Ático en calle de Fernando el Católico, Gaztambide, Madrid",chamberi,40.4341362,-3.7112885,"calle de Fernando el Católico, Gaztambide, Madrid, España",True
"Chalet adosado en calle de Vedra, Entrevías, Madrid",puente-de-vallecas,40.3790449,-3.6717573,"Entrevías, Madrid, España",True
"Piso en calle de San Pedro, Huertas-Cortes, Madrid",centro,40.0298972,-3.5940539,"calle de San Pedro, Madrid, España",True
"Piso en calle de Castilla, 21, Bellas Vistas, Madrid",tetuan,40.4530367,-3.7057452,"calle de Castilla, 21, Bellas Vistas, Madrid, España",True
"Piso en calle de Alcalá, Pueblo Nuevo, Madrid",ciudad-lineal,40.4336551,-3.6469735,"calle de Alcalá, Pueblo Nuevo, Madrid, España",True
"Piso en calle de Tenerife, 40, Bellas Vistas, Madrid",tetuan,40.4513045,-3.7062161,"calle de Tenerife, 40, Bellas Vistas, Madrid, España",True
"Piso en calle de Blasco de Garay, 84, Arapiles, Madrid",chamberi,40.4381764,-3.7110852,"calle de Blasco de Garay, 84, Arapiles, Madrid, España",True
"Piso en calle de la Espada, 4, Lavapiés-Embajadores, Madrid",centro,40.4118126,-3.7047687,"calle de la Espada, 4, Lavapiés-Embajadores, Madrid, España",True
"Piso en avenida de Menéndez Pelayo, Pacífico, Madrid",retiro,40.4057118,-3.6799796,"avenida de Menéndez Pelayo, Pacífico, Madrid, España",True
"Piso en calle de Bravo Murillo, 28, Trafalgar, Madrid",chamberi,40.4366289,-3.704094,"calle de Bravo Murillo, 28, Trafalgar, Madrid, España",True
"Piso en avenida de la Peseta, Pau de Carabanchel, Madrid",carabanchel,40.3670032,-3.7642309,"avenida de la Peseta, Madrid, España",True
"Piso en Jerónimos, Madrid",retiro,40.4160929,-3.6892674,"Jerónimos, Madrid, España",True
"Piso en calle del Puerto de Pozazal, 35, Ensanche de Vallecas - La Gavia, Madrid",villa-de-vallecas,40.3797827,-3.6331358,"calle del Puerto de Pozazal, 35, Madrid, España",True
"Piso en Campamento, Madrid",latina,40.3946832,-3.7682788,"Campamento, Madrid, España",True
"Piso en calle de Belzunegui, Puerta Bonita, Madrid",carabanchel,40.3759739,-3.739095,"calle de Belzunegui, Puerta Bonita, Madrid, España",True
"Piso en calle de Valenzuela, Jerónimos, Madrid",retiro,40.41884,-3.6896835,"calle de Valenzuela, Jerónimos, Madrid, España",True
"Ático en calle de San Romualdo, Simancas, Madrid",san-blas,40.4391865,-3.6219475,"calle de San Romualdo, Simancas, Madrid, España",True
"Piso en calle de Cártama, Palomeras sureste, Madrid",puente-de-vallecas,40.384665,-3.639037,"calle de Cártama, Palomeras sureste, Madrid, España",True
"Piso en Pacífico, Madrid",retiro,40.4013961,-3.6748832,"Pacífico, Madrid, España",True
"Casa o chalet independiente en Conde Orgaz-Piovera, Madrid",hortaleza,40.4725491,-3.6425515,"hortaleza, Madrid, España",True
"Piso en calle del Bario, 18, Butarque, Madrid",villaverde,40.3480236,-3.6766236,"calle del Bario, 18, Butarque, Madrid, España",True
"Piso en calle de José del Pino Jiménez, Villaverde Alto, Madrid",villaverde,40.3456137,-3.7126785,"calle de José del Pino Jiménez, Villaverde Alto, Madrid, España",True
"Piso en calle de Fomento, Palacio, Madrid",centro,40.4210674,-3.7104243,"calle de Fomento, Palacio, Madrid, España",True
"Dúplex en Pau de Carabanchel, Madrid",carabanchel,40.3693417,-3.7623726,"Pau de Carabanchel, Madrid, España",True
"Piso en calle Besolla, Abrantes, Madrid",carabanchel,40.3753766,-3.7336702,"calle Besolla, Abrantes, Madrid, España",True
"Ático en El Viso, Madrid",chamartin,40.4448882,-3.6847127,"El Viso, Madrid, España",True
"Dúplex en calle Catamarán, Alameda de Osuna, Madrid",barajas,40.4513967,-3.5947664,"calle Catamarán, Alameda de Osuna, Madrid, España",True
"Piso en calle de Francisco Silvela, Lista, Madrid",barrio-de-salamanca,40.4351649,-3.6751701,"calle de Francisco Silvela, Lista, Madrid, España",True
"Estudio en calle de Berruguete, 67, Berruguete, Madrid",tetuan,40.4597401,-3.7052165,"calle de Berruguete, 67, Berruguete, Madrid, España",True
"Piso en calle Teniente Ochoa Olalla, 2, San Isidro, Madrid",carabanchel,40.3957715,-3.7330925,"calle Teniente Ochoa Olalla, 2, San Isidro, Madrid, España",True
"Piso en calle de la Cerrajería, Amposta, Madrid",san-blas,40.4251111,-3.624351,"Amposta, Madrid, España",True
"Piso en calle de Alcalá de Guadaíra, Palomeras Bajas, Madrid",puente-de-vallecas,40.3892459,-3.6573685,"calle de Alcalá de Guadaíra, Palomeras Bajas, Madrid, España",True
"Piso en calle del Pez, 12, Malasaña-Universidad, Madrid",centro,40.4233907,-3.7048002,"calle del Pez, 12, Malasaña-Universidad, Madrid, España",True
"Piso en calle de la Colegiata, Lavapiés-Embajadores, Madrid",centro,40.4127987,-3.7057835,"calle de la Colegiata, Lavapiés-Embajadores, Madrid, España",True
"Piso en calle Casa de Tilly, 33, El Cañaveral, Madrid",vicalvaro,40.4011587,-3.5486709,"calle Casa de Tilly, 33, El Cañaveral, Madrid, España",True
"Piso en Valdeacederas, Madrid",tetuan,40.4679108,-3.7034226,"Valdeacederas, Madrid, España",True
"Piso en Delicias, Madrid",arganzuela,40.3967843,-3.6900384,"Delicias, Madrid, España",True
"Piso en calle de Membezar, Entrevías, Madrid",puente-de-vallecas,40.378303,-3.6705955,"calle de Membezar, Entrevías, Madrid, España",True
"Dúplex en El Viso, Madrid",chamartin,40.4448882,-3.6847127,"El Viso, Madrid, España",True
"Piso en avenida de Filipinas, Vallehermoso, Madrid",chamberi,40.4400323,-3.7101862,"avenida de Filipinas, Vallehermoso, Madrid, España",True
"Piso en calle Virgen de la Monjia, 3, Concepción, Madrid",ciudad-lineal,40.4382057,-3.6495784,"Concepción, Madrid, España",True
"Piso en plaza de la República Argentina, 8, El Viso, Madrid",chamartin,40.4449812,-3.6846532,"plaza de la República Argentina, 8, El Viso, Madrid, España",True
"Piso en calle de Bretón de los Herreros, Nuevos Ministerios-Ríos Rosas, Madrid",chamberi,40.4394538,-3.696143,"calle de Bretón de los Herreros, Madrid, España",True
"Chalet adosado en Los Cármenes, Madrid",latina,40.4035317,-3.736152,"latina, Madrid, España",True
"Piso en calle del General Pardiñas, Goya, Madrid",barrio-de-salamanca,40.4268857,-3.6784898,"calle del General Pardiñas, Goya, Madrid, España",True
"Piso en calle de San Claudio, Palomeras sureste, Madrid",puente-de-vallecas,40.3889719,-3.6414007,"calle de San Claudio, Palomeras sureste, Madrid, España",True
"Dúplex en calle de Vergara, Palacio, Madrid",centro,40.4178472,-3.7102893,"calle de Vergara, Palacio, Madrid, España",True
"Piso en calle Ana Teresa, 1, Aravaca, Madrid",moncloa,40.460611,-3.7803395,"calle Ana Teresa, 1, Aravaca, Madrid, España",True
"Piso en calle Pico de los Artilleros, Vinateros, Madrid",moratalaz,40.4051965,-3.6415467,"Vinateros, Madrid, España",True
"Piso en calle Almendralejo, San Isidro, Madrid",carabanchel,40.3976973,-3.7346776,"calle Almendralejo, San Isidro, Madrid, España",True
"Ático en Costillares, Madrid",ciudad-lineal,40.4760473,-3.6685122,"Costillares, Madrid, España",True
"Piso en vereda de la Cebolla, s/n, El Cañaveral, Madrid",vicalvaro,40.4025252,-3.5550809,"El Cañaveral, Madrid, España",True
"Piso en calle de Ilustración, Argüelles, Madrid",moncloa,40.4212052,-3.7169799,"calle de Ilustración, Argüelles, Madrid, España",True
"Piso en calle de Mercedes Arteaga, s/n, Opañel, Madrid",carabanchel,40.3903949,-3.7221926,"Opañel, Madrid, España",True
"Piso en calle del General Díaz Porlier, Goya, Madrid",barrio-de-salamanca,40.4254305,-3.6771904,"calle del General Díaz Porlier, Goya, Madrid, España",True
"Piso en Nuevos Ministerios-Ríos Rosas, Madrid",chamberi,40.4458416,-3.6916991,"Nuevos Ministerios-Ríos Rosas, Madrid, España",True
"Dúplex en calle Cerro del Murmullo, Ensanche de Vallecas - La Gavia, Madrid",villa-de-vallecas,40.3648027,-3.5808506,"calle Cerro del Murmullo, Madrid, España",True
"Piso en paseo de Santa María de la Cabeza, Palos de la Frontera, Madrid",arganzuela,40.4025697,-3.6977956,"paseo de Santa María de la Cabeza, Palos de la Frontera, Madrid, España",True
"Piso en plaza de la Cruz Verde, Palacio, Madrid",centro,40.4140476,-3.7118112,"plaza de la Cruz Verde, Palacio, Madrid, España",True
"Casa o chalet independiente en calle de Amorebieta, El Plantío, Madrid",moncloa,40.4700616,-3.8206858,"El Plantío, Madrid, España",True
"Piso en Sainz De Baranda, 53, Niño Jesús, Madrid",retiro,40.4166603,-3.6729116,"Sainz De Baranda, 53, Niño Jesús, Madrid, España",True
"Piso en calle de Alcántara, Goya, Madrid",barrio-de-salamanca,40.4294965,-3.7238012,"calle de Alcántara, Madrid, España",True
"Piso en plaza de Ribadeo, 4, Pilar, Madrid",fuencarral,40.4770021,-3.7105082,"plaza de Ribadeo, 4, Pilar, Madrid, España",True
"Piso en calle del Mesón de Paredes, Lavapiés-Embajadores, Madrid",centro,40.4065559,-3.7018405,"calle del Mesón de Paredes, Lavapiés-Embajadores, Madrid, España",True
"Piso en Palomas, Madrid",hortaleza,40.4522376,-3.6141158,"Palomas, Madrid, España",True
"Dúplex en Valdemarín, Madrid",moncloa,40.4675501,-3.7822569,"Valdemarín, Madrid, España",True
"Piso en calle de Hermosilla, Fuente del Berro, Madrid",barrio-de-salamanca,40.425467,-3.6667823,"calle de Hermosilla, Fuente del Berro, Madrid, España",True
"Chalet adosado en Palomas, Madrid",hortaleza,40.4725491,-3.6425515,"hortaleza, Madrid, España",True
"Piso en calle Gandhi, Pueblo Nuevo, Madrid",ciudad-lineal,40.4246414,-3.633218,"calle Gandhi, Pueblo Nuevo, Madrid, España",True
"Piso en calle de Aguarón, 31, Valdemarín, Madrid",moncloa,40.4655937,-3.7924333,"calle de Aguarón, 31, Valdemarín, Madrid, España",True
"Piso en Chueca-Justicia, Madrid",centro,40.4182664,-3.6946869,"Chueca-Justicia, Madrid, España",True
"Piso en calle del Marqués de Santa Ana, Malasaña-Universidad, Madrid",centro,40.4246188,-3.7046369,"calle del Marqués de Santa Ana, Malasaña-Universidad, Madrid, España",True
"Piso en calle del Príncipe de Vergara, 71, Castellana, Madrid",barrio-de-salamanca,40.4346341,-3.679569,"calle del Príncipe de Vergara, 71, Castellana, Madrid, España",True
"Piso en calle del Gorrión, San Isidro, Madrid",carabanchel,40.3961913,-3.7288224,"calle del Gorrión, San Isidro, Madrid, España",True
"Ático en avenida de la Gran Vía del Sureste, 31, Ensanche de Vallecas - La Gavia, Madrid",villa-de-vallecas,40.371129,-3.6135502,"Ensanche de Vallecas - La Gavia, Madrid, España",True
"Piso en Palacio, Madrid",centro,40.4153295,-3.7147092,"Palacio, Madrid, España",True
"Ático en calle de la Paz, Sol, Madrid",centro,40.4156837,-3.7039271,"calle de la Paz, Sol, Madrid, España",True
"Piso en Almagro, Madrid",chamberi,40.4336632,-3.6942857,"Almagro, Madrid, España",True
"Piso en calle de los Libreros, Malasaña-Universidad, Madrid",centro,40.4215529,-3.7066554,"calle de los Libreros, Madrid, España",True
"Piso en Goya, Madrid",barrio-de-salamanca,40.4246991,-3.6762001,"Goya, Madrid, España",True
"Piso en avenida del Manzanares, Moscardó, Madrid",usera,40.3926534,-3.7021531,"avenida del Manzanares, Moscardó, Madrid, España",True
"Piso en calle de Bravo Murillo, 213 ---- bis, Berruguete, Madrid",tetuan,40.4577619,-3.7012576,"calle de Bravo Murillo, 213 ---- bis, Berruguete, Madrid, España",True
"Piso en calle San David, s/n, Comillas, Madrid",carabanchel,40.3945067,-3.7070354,"calle San David, s/n, Comillas, Madrid, España",True
"Piso en calle del Doctor Juan José López Ibor, Peñagrande, Madrid",fuencarral,40.4734681,-3.7286462,"calle del Doctor Juan José López Ibor, Peñagrande, Madrid, España",True
"Chalet adosado en ronda de Cala Basa, Conde Orgaz-Piovera, Madrid",hortaleza,40.4566911,-3.6475883,"Conde Orgaz-Piovera, Madrid, España",True
"Piso en Los Rosales, Madrid",villaverde,40.3571948,-3.6894484,"Los Rosales, Madrid, España",True
"Piso en calle Alfredo Aleix, Buena Vista, Madrid",carabanchel,40.3684027,-3.7559108,"calle Alfredo Aleix, Madrid, España",True
"Piso en avenida del Monasterio de El Escorial, Montecarmelo, Madrid",fuencarral,40.507946,-3.6948307,"avenida del Monasterio de El Escorial, Montecarmelo, Madrid, España",True
"Casa o chalet independiente en Nueva España, Madrid",chamartin,40.4589872,-3.6761288,"chamartin, Madrid, España",True
"Piso en calle Zamenhof, 22, Salvador, Madrid",san-blas,40.4462791,-3.6267267,"calle Zamenhof, 22, Salvador, Madrid, España",True
"Dúplex en calle de Trefacio, Canillas, Madrid",hortaleza,40.46623,-3.6351997,"calle de Trefacio, Canillas, Madrid, España",True
"Ático en Arroyo del Fresno, Madrid",fuencarral,40.4895829,-3.7302946,"Arroyo del Fresno, Madrid, España",True
"Piso en Aluche, Madrid",latina,40.392356,-3.7571096,"Aluche, Madrid, España",True
"Piso en calle Alfredo Aleix, 26, Buena Vista, Madrid",carabanchel,40.3684027,-3.7559108,"calle Alfredo Aleix, 26, Madrid, España",True
"Piso en calle de Juan Tornero, Puerta del Ángel, Madrid",latina,40.4114183,-3.7291066,"calle de Juan Tornero, Puerta del Ángel, Madrid, España",True
"Estudio en calle Galería Vallehermoso, 6, Vallehermoso, Madrid",chamberi,40.4431893,-3.7108233,"Vallehermoso, Madrid, España",True
"Piso en Moscardó, Madrid",usera,40.3890429,-3.7057718,"Moscardó, Madrid, España",True
"Piso en calle Provisional Berrocales 81 10, s/n, Los Berrocales, Madrid",vicalvaro,40.3706493,-3.5722463,"calle Provisional Berrocales 81 10, Madrid, España",True
"Piso en Virgen de Lourdes, Concepción, Madrid",ciudad-lineal,40.4359201,-3.656515,"Virgen de Lourdes, Concepción, Madrid, España",True
"Casa o chalet independiente en calle de Navarredonda de Gredos, Fuentelarreina, Madrid",fuencarral,40.4774958,-3.7426018,"Fuentelarreina, Madrid, España",True
"Piso en calle de Padilla, Lista, Madrid",barrio-de-salamanca,40.4312959,-3.6781459,"calle de Padilla, Lista, Madrid, España",True
"Piso en calle del Sándalo, Palomas, Madrid",hortaleza,40.4541116,-3.6168432,"calle del Sándalo, Palomas, Madrid, España",True
"Chalet pareado en Nueva España, Madrid",chamartin,40.4589872,-3.6761288,"chamartin, Madrid, España",True
"Casa o chalet independiente en El Viso, Madrid",chamartin,40.4589872,-3.6761288,"chamartin, Madrid, España",True
"Piso en Portazgo, Madrid",puente-de-vallecas,40.3930132,-3.659194,"Portazgo, Madrid, España",True
"Piso en calle Infanta Mercedes, 91, Cuzco-Castillejos, Madrid",tetuan,40.4623004,-3.6947774,"calle Infanta Mercedes, 91, Madrid, España",True
"Piso en calle de Pedro Teixeira, Cuatro Caminos, Madrid",tetuan,40.4467812,-3.7039643,"Cuatro Caminos, Madrid, España",True
"Piso en calle de Mercedes Arteaga, 26, Opañel, Madrid",carabanchel,40.3903949,-3.7221926,"Opañel, Madrid, España",True
"Ático en calle de la Unión, Palacio, Madrid",centro,40.4172192,-3.7104154,"calle de la Unión, Palacio, Madrid, España",True
"Piso en calle de Fernando el Católico, 17, Arapiles, Madrid",chamberi,40.433854,-3.7081296,"calle de Fernando el Católico, 17, Arapiles, Madrid, España",True
"Piso en calle de Hermosilla, Goya, Madrid",barrio-de-salamanca,40.4256965,-3.6710868,"calle de Hermosilla, Goya, Madrid, España",True
"Piso en calle de María Teresa, 18, Guindalera, Madrid",barrio-de-salamanca,40.4360564,-3.6686488,"calle de María Teresa, 18, Guindalera, Madrid, España",True
"Piso en avenida de Oporto, Opañel, Madrid",carabanchel,40.3880154,-3.7317354,"avenida de Oporto, Opañel, Madrid, España",True
"Piso en calle Isla de Cristina, 14, Valdezarza, Madrid",moncloa,40.4649542,-3.717074,"Valdezarza, Madrid, España",True
"Piso en calle Villardondiego, Ambroz, Madrid",vicalvaro,40.4074522,-3.6082445,"calle Villardondiego, Madrid, España",True
"Ático en calle de Alonso Cano, Nuevos Ministerios-Ríos Rosas, Madrid",chamberi,40.4423982,-3.6974621,"calle de Alonso Cano, Madrid, España",True
"Piso en calle del Parque de la Paloma, Zofío, Madrid",usera,40.3783484,-3.7131121,"calle del Parque de la Paloma, Zofío, Madrid, España",True
"Piso en calle del Maestro Ángel Llorca, Vallehermoso, Madrid",chamberi,40.443766,-3.7141435,"calle del Maestro Ángel Llorca, Vallehermoso, Madrid, España",True
"Piso en calle de Abtao, Pacífico, Madrid",retiro,40.4048787,-3.6756208,"calle de Abtao, Pacífico, Madrid, España",True
"Ático en calle de la Montera, Sol, Madrid",centro,40.4190835,-3.7020615,"calle de la Montera, Sol, Madrid, España",True
"Dúplex en calle Javier Ferrero, 1, Ciudad Jardín, Madrid",chamartin,40.4484941,-3.6705275,"calle Javier Ferrero, 1, Ciudad Jardín, Madrid, España",True
"Piso en Palos de la Frontera, Madrid",arganzuela,40.4030849,-3.6947843,"Palos de la Frontera, Madrid, España",True
"Piso en camino Viejo de Leganés, Puerta Bonita, Madrid",carabanchel,40.3838428,-3.7290472,"camino Viejo de Leganés, Puerta Bonita, Madrid, España",True
"Piso en calle San Bartolomé, 22, Chueca-Justicia, Madrid",centro,40.4221429,-3.6983122,"calle San Bartolomé, 22, Chueca-Justicia, Madrid, España",True
"Piso en calle Rufino González, 59, Simancas, Madrid",san-blas,40.4356216,-3.6255336,"calle Rufino González, 59, Simancas, Madrid, España",True
"Piso en calle de Sánchez Pacheco, 53, Ciudad Jardín, Madrid",chamartin,40.4476279,-3.6724499,"calle de Sánchez Pacheco, 53, Ciudad Jardín, Madrid, España",True
"Piso en calle del Jaspe, Pradolongo, Madrid",usera,40.3813877,-3.7068828,"calle del Jaspe, Pradolongo, Madrid, España",True
"Piso en calle de Villanueva, Recoletos, Madrid",barrio-de-salamanca,40.4224476,-3.6863783,"calle de Villanueva, Recoletos, Madrid, España",True
"Piso en calle de Argensola, Chueca-Justicia, Madrid",centro,40.4256456,-3.6946403,"calle de Argensola, Chueca-Justicia, Madrid, España",True
"Piso en Rejas, Madrid",san-blas,40.4448868,-3.5720332,"Rejas, Madrid, España",True
"Ático en Prosperidad, Madrid",chamartin,40.443946,-3.6701659,"Prosperidad, Madrid, España",True
"Piso en calle de Santiago Cordero, 18, Valdeacederas, Madrid",tetuan,40.4678617,-3.7010788,"calle de Santiago Cordero, 18, Valdeacederas, Madrid, España",True
"Piso en calle de Manuel Galindo, Vista Alegre, Madrid",carabanchel,40.3859736,-3.7369513,"calle de Manuel Galindo, Vista Alegre, Madrid, España",True
"Piso en calle del Amparo, Lavapiés-Embajadores, Madrid",centro,40.4091452,-3.7026715,"calle del Amparo, Lavapiés-Embajadores, Madrid, España",True
"Piso en calle de San Pedro de Cardeña, s/n, Apóstol Santiago, Madrid",hortaleza,40.4751949,-3.6593186,"calle de San Pedro de Cardeña, s/n, Apóstol Santiago, Madrid, España",True
"Piso en Casa de Campo, Madrid",moncloa,40.4241907,-3.755858,"Casa de Campo, Madrid, España",True
"Piso en Castellana, Madrid",barrio-de-salamanca,40.4333241,-3.6841316,"Castellana, Madrid, España",True
"Piso en calle de María de las Mercedes de Borbón, Valdebebas - Valdefuentes, Madrid",hortaleza,40.4924604,-3.6126919,"calle de María de las Mercedes de Borbón, Valdebebas - Valdefuentes, Madrid, España",True
"Casa o chalet independiente en Ciudad Universitaria, Madrid",moncloa,40.4350196,-3.719236,"moncloa, Madrid, España",True
"Piso en calle de Fernández de la Hoz, 28, Almagro, Madrid",chamberi,40.4339284,-3.6949194,"calle de Fernández de la Hoz, 28, Almagro, Madrid, España",True
"Dúplex en calle de la Isla de Java, 30, Tres Olivos - Valverde, Madrid",fuencarral,40.4885028,-3.6816347,"calle de la Isla de Java, 30, Madrid, España",True
"Piso en calle de Dulce Chacón, 49, Virgen del Cortijo - Manoteras, Madrid",hortaleza,40.4862524,-3.6712242,"calle de Dulce Chacón, 49, Madrid, España",True
"Piso en calle de Velázquez, Recoletos, Madrid",barrio-de-salamanca,40.4270268,-3.6839689,"calle de Velázquez, Recoletos, Madrid, España",True
"Piso en calle de Zaida, 9, San Isidro, Madrid",carabanchel,40.3919497,-3.7355658,"calle de Zaida, 9, San Isidro, Madrid, España",True
"Piso en calle José del Río, San Isidro, Madrid",carabanchel,40.3945478,-3.7265636,"calle José del Río, San Isidro, Madrid, España",True
"Piso en Lavapiés-Embajadores, Madrid",centro,40.4069101,-3.7049708,"Lavapiés-Embajadores, Madrid, España",True
"Piso en calle del Doctor Drumen, Lavapiés-Embajadores, Madrid",centro,40.4086527,-3.6932283,"calle del Doctor Drumen, Madrid, España",True
"Piso en avenida de Burgos, 28, Castilla, Madrid",chamartin,40.4785232,-3.6750914,"avenida de Burgos, 28, Castilla, Madrid, España",True
"Ático en calle del Jazmín, Costillares, Madrid",ciudad-lineal,40.479974,-3.6655491,"calle del Jazmín, Costillares, Madrid, España",True
"Chalet pareado en avenida del Papa Negro, Conde Orgaz-Piovera, Madrid",hortaleza,40.4566911,-3.6475883,"Conde Orgaz-Piovera, Madrid, España",True
"Piso en Colina, Madrid",ciudad-lineal,40.4580463,-3.6602556,"Colina, Madrid, España",True
"Piso en calle de Dulce Chacón, Virgen del Cortijo - Manoteras, Madrid",hortaleza,40.4866844,-3.6720464,"calle de Dulce Chacón, Madrid, España",True
"Piso en paseo Perales, Puerta del Ángel, Madrid",latina,40.4049754,-3.7385935,"paseo Perales, Puerta del Ángel, Madrid, España",True
"Piso en calle de la Cava Baja, Palacio, Madrid",centro,40.4123636,-3.7092465,"calle de la Cava Baja, Palacio, Madrid, España",True
"Piso en calle de los Mancebos, Palacio, Madrid",centro,40.4127827,-3.7130327,"calle de los Mancebos, Palacio, Madrid, España",True
"Piso en calle de Andorra, Canillas, Madrid",hortaleza,40.4589641,-3.6452442,"calle de Andorra, Canillas, Madrid, España",True
"Chalet adosado en Canillas, Madrid",hortaleza,40.4725491,-3.6425515,"hortaleza, Madrid, España",True
"Ático en Guindalera, Madrid",barrio-de-salamanca,40.436356,-3.6680189,"Guindalera, Madrid, España",True
"Ático en Goya, Madrid",barrio-de-salamanca,40.4246991,-3.6762001,"Goya, Madrid, España",True
"Piso en calle de Jorge Juan, Recoletos, Madrid",barrio-de-salamanca,40.423866,-3.6861813,"calle de Jorge Juan, Recoletos, Madrid, España",True
"Ático en calle de Fernán González, Ibiza, Madrid",retiro,40.4186801,-3.6746012,"calle de Fernán González, Ibiza, Madrid, España",True
"Piso en Ibiza, Madrid",retiro,40.4189526,-3.6737251,"Ibiza, Madrid, España",True
"Chalet pareado en El Plantío, Madrid",moncloa,40.4350196,-3.719236,"moncloa, Madrid, España",True
"Piso en calle de las Virtudes, Almagro, Madrid",chamberi,40.4375365,-3.6986329,"calle de las Virtudes, Almagro, Madrid, España",True
"Piso en calle Ramón Gómez de la Serna, 49, Peñagrande, Madrid",fuencarral,40.4837027,-3.725292,"calle Ramón Gómez de la Serna, 49, Peñagrande, Madrid, España",True
"Piso en calle de la Ballesta, Malasaña-Universidad, Madrid",centro,40.4215942,-3.7035017,"calle de la Ballesta, Malasaña-Universidad, Madrid, España",True
"Piso en calle de López Grass, Numancia, Madrid",puente-de-vallecas,40.3995283,-3.6596765,"Numancia, Madrid, España",True
"Piso en calle de Puentelarra, Santa Eugenia, Madrid",villa-de-vallecas,40.3832792,-3.6078987,"calle de Puentelarra, Santa Eugenia, Madrid, España",True
"Piso en calle Magín Calvo, Puerta del Ángel, Madrid",latina,40.4076459,-3.7339872,"calle Magín Calvo, Puerta del Ángel, Madrid, España",True
"Dúplex en calle de Santiago Cordero, Valdeacederas, Madrid",tetuan,40.4678617,-3.7010788,"calle de Santiago Cordero, Valdeacederas, Madrid, España",True
"Piso en calle de Atocha, Lavapiés-Embajadores, Madrid",centro,40.4110043,-3.6964573,"calle de Atocha, Lavapiés-Embajadores, Madrid, España",True
"Chalet pareado en calle de los Narcisos, Bernabéu-Hispanoamérica, Madrid",chamartin,40.453057,-3.6883531,"Bernabéu-Hispanoamérica, Madrid, España",True
"Piso en calle de la Magdalena, Lavapiés-Embajadores, Madrid",centro,40.4123544,-3.7009702,"calle de la Magdalena, Lavapiés-Embajadores, Madrid, España",True
"Piso en calle de José Ortega y Gasset, 66, Lista, Madrid",barrio-de-salamanca,40.4297201,-3.6748121,"calle de José Ortega y Gasset, 66, Lista, Madrid, España",True
"Piso en calle del Doctor Juan José López Ibor, Valdezarza, Madrid",moncloa,40.4744762,-3.7292116,"calle del Doctor Juan José López Ibor, Madrid, España",True
"Piso en paseo de los Jesuitas, Puerta del Ángel, Madrid",latina,40.4084673,-3.7345295,"paseo de los Jesuitas, Puerta del Ángel, Madrid, España",True
"Piso en Marroquina, Madrid",moratalaz,40.4107193,-3.6405684,"Marroquina, Madrid, España",True
"Piso en calle de la Marquesa de Silvela, 13, Moscardó, Madrid",usera,40.3860432,-3.7143829,"calle de la Marquesa de Silvela, 13, Moscardó, Madrid, España",True
"Estudio en calle del Amparo, 51, Lavapiés-Embajadores, Madrid",centro,40.4091956,-3.7026673,"calle del Amparo, 51, Lavapiés-Embajadores, Madrid, España",True
"Piso en Conde de Vistahermosa, 33, Comillas, Madrid",carabanchel,40.3936826,-3.7107723,"Conde de Vistahermosa, 33, Comillas, Madrid, España",True
"Piso en calle de Sánchez Barcáiztegui, 6, Pacífico, Madrid",retiro,40.4026441,-3.6755163,"calle de Sánchez Barcáiztegui, 6, Pacífico, Madrid, España",True
"Piso en camino de Valderribas, Numancia, Madrid",puente-de-vallecas,40.4008319,-3.6647539,"camino de Valderribas, Numancia, Madrid, España",True
"Piso en calle de O'Donnell, Goya, Madrid",barrio-de-salamanca,40.421293,-3.6701562,"calle de O'Donnell, Goya, Madrid, España",True
"Piso en calle de Alvarado, 10, Bellas Vistas, Madrid",tetuan,40.450674,-3.7043541,"calle de Alvarado, 10, Bellas Vistas, Madrid, España",True
"Ático en Carrera de San Jerónimo, Huertas-Cortes, Madrid",centro,40.4163018,-3.6978729,"Carrera de San Jerónimo, Madrid, España",True
"Piso en calle de Mateo Inurria, Castilla, Madrid",chamartin,40.4666007,-3.686503,"calle de Mateo Inurria, Castilla, Madrid, España",True
"Estudio en calle de Rosario Pino, Cuzco-Castillejos, Madrid",tetuan,40.4620819,-3.6903119,"calle de Rosario Pino, Madrid, España",True
"Casa o chalet independiente en calle Eibar, El Plantío, Madrid",moncloa,40.4700616,-3.8206858,"El Plantío, Madrid, España",True
"Estudio en Colina, Madrid",ciudad-lineal,40.4580463,-3.6602556,"Colina, Madrid, España",True
"Piso en Cuatro Caminos, Madrid",tetuan,40.4467812,-3.7039643,"Cuatro Caminos, Madrid, España",True
"Piso en calle de la Encomienda de Palacios, Fontarrón, Madrid",moratalaz,40.4007783,-3.645167,"calle de la Encomienda de Palacios, Fontarrón, Madrid, España",True
"Dúplex en calle de Sánchez Barcáiztegui, Pacífico, Madrid",retiro,40.4044425,-3.6742807,"calle de Sánchez Barcáiztegui, Pacífico, Madrid, España",True
"Piso en Berruguete, Madrid",tetuan,40.4602706,-3.7043452,"Berruguete, Madrid, España",True
"Piso en calle de Godella, s/n, San Cristóbal, Madrid",villaverde,40.3420803,-3.6883426,"calle de Godella, s/n, San Cristóbal, Madrid, España",True
"Piso en calle de Santa Cruz de Marcenado, 2, Malasaña-Universidad, Madrid",centro,40.4291349,-3.7110163,"calle de Santa Cruz de Marcenado, 2, Malasaña-Universidad, Madrid, España",True
"Piso en calle de Marcelo Usera, 121, Pradolongo, Madrid",usera,40.3853296,-3.709295,"calle de Marcelo Usera, 121, Pradolongo, Madrid, España",True
"Piso en calle de Sierra Elvira, Numancia, Madrid",puente-de-vallecas,40.4050873,-3.6619384,"calle de Sierra Elvira, Numancia, Madrid, España",True
"Piso en calle de Costa Rica, Bernabéu-Hispanoamérica, Madrid",chamartin,40.4589335,-3.6690336,"calle de Costa Rica, Madrid, España",True
"Piso en calle del Corregidor Alonso de Tobar, Fontarrón, Madrid",moratalaz,40.4035237,-3.6485139,"calle del Corregidor Alonso de Tobar, Fontarrón, Madrid, España",True
"Ático en Malasaña-Universidad, Madrid",centro,40.4251415,-3.7078316,"Malasaña-Universidad, Madrid, España",True
"Piso en Corredera Alta de San Pablo, Malasaña-Universidad, Madrid",centro,40.4249687,-3.7019943,"Corredera Alta de San Pablo, Malasaña-Universidad, Madrid, España",True
"Piso en avenida del Ensanche de Vallecas, 83, Ensanche de Vallecas - La Gavia, Madrid",villa-de-vallecas,40.3628749,-3.6174174,"avenida del Ensanche de Vallecas, 83, Madrid, España",True
"Piso en calle Villaveza, 6, Villaverde Alto, Madrid",villaverde,40.3485699,-3.7139666,"calle Villaveza, 6, Villaverde Alto, Madrid, España",True
"Piso en avenida de Concha Espina, El Viso, Madrid",chamartin,40.4519148,-3.6881922,"avenida de Concha Espina, El Viso, Madrid, España",True
"Piso en El Viso, Madrid",chamartin,40.4448882,-3.6847127,"El Viso, Madrid, España",True
"Piso en calle de Sabadell, Tres Olivos - Valverde, Madrid",fuencarral,40.4914051,-3.6972028,"calle de Sabadell, Madrid, España",True
"Piso en Palomeras sureste, Madrid",puente-de-vallecas,40.3861742,-3.6329556,"Palomeras sureste, Madrid, España",True
"Piso en calle de Peñalara de Aravaca, Aravaca, Madrid",moncloa,40.457749,-3.7827941,"Aravaca, Madrid, España",True
"Piso en Antonio Pérez, 24, El Viso, Madrid",chamartin,40.4425541,-3.6816992,"Antonio Pérez, 24, El Viso, Madrid, España",True
"Piso en calle de las Marismas, 20, Numancia, Madrid",puente-de-vallecas,40.4020908,-3.6548863,"calle de las Marismas, 20, Numancia, Madrid, España",True
"Piso en calle Totana, s/n, Pinar del Rey, Madrid",hortaleza,40.4723361,-3.6535879,"calle Totana, s/n, Pinar del Rey, Madrid, España",True
"Estudio en calle de Etruria, Canillejas, Madrid",san-blas,40.4368178,-3.6090639,"calle de Etruria, Canillejas, Madrid, España",True
"Piso en calle Camarena, 275, Aluche, Madrid",latina,40.3853744,-3.7574862,"calle Camarena, 275, Aluche, Madrid, España",True
"Piso en calle del Príncipe de Vergara, Castellana, Madrid",barrio-de-salamanca,40.4319697,-3.6796358,"calle del Príncipe de Vergara, Castellana, Madrid, España",True
"Piso en Bernabéu-Hispanoamérica, Madrid",chamartin,40.453057,-3.6883531,"Bernabéu-Hispanoamérica, Madrid, España",True
"Piso en alameda del Valle, 27, Ensanche de Vallecas - La Gavia, Madrid",villa-de-vallecas,40.9177178,-3.8438216,"alameda del Valle, 27, Madrid, España",True
"Piso en calle de San Jaime, Ensanche de Vallecas - La Gavia, Madrid",villa-de-vallecas,40.3795422,-3.6273039,"calle de San Jaime, Madrid, España",True
"Piso en Puerta Bonita, Madrid",carabanchel,40.3813279,-3.7397504,"Puerta Bonita, Madrid, España",True
"Piso en paseo de San Francisco de Sales, Vallehermoso, Madrid",chamberi,40.4420186,-3.7134849,"paseo de San Francisco de Sales, Vallehermoso, Madrid, España",True
"Piso en calle de Magallanes, 22, Arapiles, Madrid",chamberi,40.4340483,-3.7055502,"calle de Magallanes, 22, Arapiles, Madrid, España",True
"Piso en calle de la Estrella, Malasaña-Universidad, Madrid",centro,40.4222848,-3.7066485,"calle de la Estrella, Malasaña-Universidad, Madrid, España",True
"Ático en Nueva España, Madrid",chamartin,40.4625939,-3.6787346,"Nueva España, Madrid, España",True
"Piso en avenida de Concha Espina, 35, El Viso, Madrid",chamartin,40.4517953,-3.6853647,"avenida de Concha Espina, 35, El Viso, Madrid, España",True
"Piso en calle Benjamín, 27, Valdeacederas, Madrid",tetuan,40.4648064,-3.7020566,"calle Benjamín, 27, Valdeacederas, Madrid, España",True
"Piso en calle del General Pardiñas, 17, Goya, Madrid",barrio-de-salamanca,40.4268857,-3.6784898,"calle del General Pardiñas, 17, Goya, Madrid, España",True
"Estudio en calle del Ventorrillo, Lavapiés-Embajadores, Madrid",centro,40.4072837,-3.7054815,"calle del Ventorrillo, Lavapiés-Embajadores, Madrid, España",True
"Piso en avenida de Ramón y Cajal, Colina, Madrid",ciudad-lineal,40.4535953,-3.6616595,"avenida de Ramón y Cajal, Colina, Madrid, España",True
"Piso en calle de Serrano, Castellana, Madrid",barrio-de-salamanca,40.4366947,-3.6863873,"calle de Serrano, Castellana, Madrid, España",True
"Piso en calle de Lope de Rueda, Ibiza, Madrid",retiro,40.4228303,-3.6774057,"calle de Lope de Rueda, Ibiza, Madrid, España",True
"Piso en calle de Embajadores, Lavapiés-Embajadores, Madrid",centro,40.4063191,-3.7033037,"calle de Embajadores, Lavapiés-Embajadores, Madrid, España",True
"Piso en calle de Samaniego, 12, Rejas, Madrid",san-blas,40.4435403,-3.5827351,"calle de Samaniego, 12, Rejas, Madrid, España",True
"Piso en calle José María Lozano Sáinz, 11, Los Ángeles, Madrid",villaverde,40.3562217,-3.6996388,"Los Ángeles, Madrid, España",True
"Piso en Pueblo Nuevo, Madrid",ciudad-lineal,40.4350329,-3.644171,"Pueblo Nuevo, Madrid, España",True
"Casa o chalet independiente en calle Alsasua, 6, Aravaca, Madrid",moncloa,40.457749,-3.7827941,"Aravaca, Madrid, España",True
"Piso en calle de Cuevas de Almanzora, 151, Apóstol Santiago, Madrid",hortaleza,40.4764884,-3.6594029,"Apóstol Santiago, Madrid, España",True
"Piso en travesía de San Mateo, Chueca-Justicia, Madrid",centro,40.4251562,-3.6979461,"travesía de San Mateo, Chueca-Justicia, Madrid, España",True
"Dúplex en calle de Nanclares de Oca, 1, Rejas, Madrid",san-blas,40.4462123,-3.5765104,"calle de Nanclares de Oca, 1, Rejas, Madrid, España",True
"Piso en calle de Orense, Cuatro Caminos, Madrid",tetuan,40.4469757,-3.6955245,"calle de Orense, Cuatro Caminos, Madrid, España",True
"Piso en calle de los Hermanos Gómez, Ventas, Madrid",ciudad-lineal,40.4279891,-3.647708,"calle de los Hermanos Gómez, Ventas, Madrid, España",True
"Ático en calle de Juanelo, Lavapiés-Embajadores, Madrid",centro,40.4111701,-3.7061331,"calle de Juanelo, Lavapiés-Embajadores, Madrid, España",True
"Piso en calle de Godella, San Cristóbal, Madrid",villaverde,40.3420803,-3.6883426,"calle de Godella, San Cristóbal, Madrid, España",True
"Piso en calle de Núñez de Balboa, Castellana, Madrid",barrio-de-salamanca,40.4338885,-3.6820584,"calle de Núñez de Balboa, Castellana, Madrid, España",True
"Piso en calle Calle de la Cava Baja, Palacio, Madrid",centro,40.4153295,-3.7147092,"Palacio, Madrid, España",True
"Casa o chalet independiente en avenida Fuentelarreina, Ciudad Universitaria, Madrid",moncloa,40.4438005,-3.7264206,"Ciudad Universitaria, Madrid, España",True
"Piso en calle de Pedro Domingo, 15, Puerta Bonita, Madrid",carabanchel,40.3849012,-3.7307481,"calle de Pedro Domingo, 15, Puerta Bonita, Madrid, España",True
"Piso en Fuente del Berro, Madrid",barrio-de-salamanca,40.424977,-3.6636998,"Fuente del Berro, Madrid, España",True
"Piso en calle de la Hacienda de Pavones, Fontarrón, Madrid",moratalaz,40.4031166,-3.6435624,"calle de la Hacienda de Pavones, Fontarrón, Madrid, España",True
"Piso en ronda de Valencia, Lavapiés-Embajadores, Madrid",centro,40.4058539,-3.6997325,"ronda de Valencia, Lavapiés-Embajadores, Madrid, España",True
"Piso en calle de Chucurí, Pinar del Rey, Madrid",hortaleza,40.4724696,-3.6489613,"Pinar del Rey, Madrid, España",True
"Piso en paseo de las Delicias, Delicias, Madrid",arganzuela,40.3937344,-3.6947422,"paseo de las Delicias, Delicias, Madrid, España",True
"Chalet adosado en calle de Toscana, Arcos, Madrid",san-blas,40.421392,-3.6184184,"Arcos, Madrid, España",True
"Piso en calle de Nicolasa Gómez, 68, Canillejas, Madrid",san-blas,40.4359046,-3.6104839,"calle de Nicolasa Gómez, 68, Canillejas, Madrid, España",True
"Piso en calle Francisco García, Vista Alegre, Madrid",carabanchel,40.386785,-3.7352462,"calle Francisco García, Vista Alegre, Madrid, España",True
"Piso en avenida Provisional Ahijones Nueve, 90, Los Ahijones, Madrid",vicalvaro,40.3900571,-3.5517762,"Los Ahijones, Madrid, España",True
"Piso en calle de la Encomienda de Palacios, 4, Fontarrón, Madrid",moratalaz,40.4002971,-3.6465118,"calle de la Encomienda de Palacios, 4, Fontarrón, Madrid, España",True
"Piso en calle del Conde de Aranda, Recoletos, Madrid",barrio-de-salamanca,40.421727,-3.6864392,"calle del Conde de Aranda, Recoletos, Madrid, España",True
"Ático en calle de Herreros de Tejada, 20, Bernabéu-Hispanoamérica, Madrid",chamartin,40.4549509,-3.6814273,"calle de Herreros de Tejada, 20, Madrid, España",True
"Piso en calle de Goya, Recoletos, Madrid",barrio-de-salamanca,40.42528,-3.6859729,"calle de Goya, Recoletos, Madrid, España",True
"Piso en calle de Alberto Aguilera, Malasaña-Universidad, Madrid",centro,40.4299259,-3.7097108,"calle de Alberto Aguilera, Malasaña-Universidad, Madrid, España",True
"Piso en calle de Olite, Bellas Vistas, Madrid",tetuan,40.4518506,-3.7069893,"calle de Olite, Bellas Vistas, Madrid, España",True
"Piso en calle de Isabel la Católica, Palacio, Madrid",centro,40.4213213,-3.7091466,"calle de Isabel la Católica, Palacio, Madrid, España",True
"Piso en calle de Alfonso Rodríguez Santamaría, El Viso, Madrid",chamartin,40.4448882,-3.6847127,"El Viso, Madrid, España",True
"Piso en calle de Orense, 44, Cuzco-Castillejos, Madrid",tetuan,40.447589,-3.6954503,"calle de Orense, 44, Madrid, España",True
"Piso en calle de Isabel Clara Eugenia, 62, Sanchinarro, Madrid",hortaleza,40.4969283,-3.6569286,"calle de Isabel Clara Eugenia, 62, Sanchinarro, Madrid, España",True
"Ático en calle del Galeón, 28, Alameda de Osuna, Madrid",barajas,40.4601187,-3.8756721,"calle del Galeón, 28, Madrid, España",True
"Ático en angel, 9, Palacio, Madrid",centro,40.4099573,-3.712512,"angel, 9, Palacio, Madrid, España",True
"Ático en calle de Alfonso X, Almagro, Madrid",chamberi,40.4334758,-3.6921388,"calle de Alfonso X, Almagro, Madrid, España",True
"Piso en calle de la Cabeza, Lavapiés-Embajadores, Madrid",centro,40.4117677,-3.7036242,"calle de la Cabeza, Lavapiés-Embajadores, Madrid, España",True
"Piso en calle Nicolás Godoy, Almendrales, Madrid",usera,40.386606,-3.6998317,"calle Nicolás Godoy, Almendrales, Madrid, España",True
"Piso en calle de Santa Isabel, 9, Lavapiés-Embajadores, Madrid",centro,40.4110084,-3.6983617,"calle de Santa Isabel, 9, Lavapiés-Embajadores, Madrid, España",True
"Casa o chalet independiente en calle Valdivieso, 8, Aravaca, Madrid",moncloa,40.457749,-3.7827941,"Aravaca, Madrid, España",True
"Piso en calle de Gualanday, Pinar del Rey, Madrid",hortaleza,40.4724696,-3.6489613,"Pinar del Rey, Madrid, España",True
"Piso en calle del Conde de Peñalver, Goya, Madrid",barrio-de-salamanca,40.4260468,-3.6756039,"calle del Conde de Peñalver, Goya, Madrid, España",True
"Piso en calle de Moratín, Huertas-Cortes, Madrid",centro,40.4123661,-3.6970885,"calle de Moratín, Madrid, España",True
"Piso en calle del Sacramento, Palacio, Madrid",centro,40.4145627,-3.7111084,"calle del Sacramento, Palacio, Madrid, España",True
"Piso en calle de Oña, Virgen del Cortijo - Manoteras, Madrid",hortaleza,40.4893617,-3.6616717,"calle de Oña, Madrid, España",True
"Estudio en calle de Velarde, 9, Malasaña-Universidad, Madrid",centro,40.4266365,-3.7028699,"calle de Velarde, 9, Malasaña-Universidad, Madrid, España",True
"Piso en Cerro del Campo, 31, El Cañaveral, Madrid",vicalvaro,40.4114959,-3.5617689,"Cerro del Campo, 31, El Cañaveral, Madrid, España",True
"Piso en calle de Lagasca, Castellana, Madrid",barrio-de-salamanca,40.4340037,-3.6844973,"calle de Lagasca, Castellana, Madrid, España",True
"Chalet adosado en avenida del Padre Cipriano, 17, El Pardo, Madrid",fuencarral,40.5205538,-3.7780738,"El Pardo, Madrid, España",True
"Piso en Tres Olivos - Valverde, Madrid",fuencarral,40.5005654,-3.6946962,"Tres Olivos - Valverde, Madrid, España",True
"Piso en calle San Valeriano, Bellas Vistas, Madrid",tetuan,40.4510282,-3.7083292,"calle San Valeriano, Bellas Vistas, Madrid, España",True
"Casa o chalet independiente en Fuentelarreina, Madrid",fuencarral,40.426213,-3.7009931,"fuencarral, Madrid, España",True
"Estudio en calle de la Cava Baja, 39, Palacio, Madrid",centro,40.4119991,-3.709922,"calle de la Cava Baja, 39, Palacio, Madrid, España",True
"Piso en calle de Ginzo de Limia, 36, La Paz, Madrid",fuencarral,40.4780512,-3.7032737,"calle de Ginzo de Limia, 36, La Paz, Madrid, España",True
"Estudio en Fuerzas Armadas, 400, Valdebebas - Valdefuentes, Madrid",hortaleza,40.482297,-3.6220123,"Fuerzas Armadas, 400, Valdebebas - Valdefuentes, Madrid, España",True
"Piso en paseo de la Castellana, El Viso, Madrid",chamartin,40.4407791,-3.6916369,"paseo de la Castellana, El Viso, Madrid, España",True
"Piso en plaza de Puerta Cerrada, 7, Palacio, Madrid",centro,40.4136985,-3.7089584,"plaza de Puerta Cerrada, 7, Palacio, Madrid, España",True
"Piso en paseo de la Infanta Isabel, Jerónimos, Madrid",retiro,40.4081198,-3.6903298,"paseo de la Infanta Isabel, Jerónimos, Madrid, España",True
"Piso en calle de Santa Engracia, Trafalgar, Madrid",chamberi,40.4368578,-3.699545,"calle de Santa Engracia, Trafalgar, Madrid, España",True
"Piso en calle de José Arcones Gil, Pueblo Nuevo, Madrid",ciudad-lineal,40.4296054,-3.6350426,"calle de José Arcones Gil, Pueblo Nuevo, Madrid, España",True
"Chalet pareado en Canillas, Madrid",hortaleza,40.4725491,-3.6425515,"hortaleza, Madrid, España",True
"Piso en calle de Mazarredo, Imperial, Madrid",arganzuela,40.4129316,-3.7183856,"calle de Mazarredo, Imperial, Madrid, España",True
"Ático en calle de Valcarlos, 29, Las Tablas, Madrid",fuencarral,40.5014553,-3.6687008,"calle de Valcarlos, 29, Las Tablas, Madrid, España",True
"Piso en calle Socuéllamos, 4, Almendrales, Madrid",usera,40.3810317,-3.6980396,"calle Socuéllamos, 4, Almendrales, Madrid, España",True
"Piso en calle del Corregidor José de Pasamonte, 15, Marroquina, Madrid",moratalaz,40.410464,-3.6484968,"calle del Corregidor José de Pasamonte, 15, Marroquina, Madrid, España",True
"Ático en Valdebebas - Valdefuentes, Madrid",hortaleza,40.4924377,-3.668818,"Valdebebas - Valdefuentes, Madrid, España",True
"Piso en calle de Servando Batanero, Pueblo Nuevo, Madrid",ciudad-lineal,40.4302785,-3.6437255,"calle de Servando Batanero, Pueblo Nuevo, Madrid, España",True
"Piso en calle de San Bernardino, Malasaña-Universidad, Madrid",centro,40.4251568,-3.7103223,"calle de San Bernardino, Malasaña-Universidad, Madrid, España",True
"Chalet adosado en Conde Orgaz-Piovera, Madrid",hortaleza,40.4725491,-3.6425515,"hortaleza, Madrid, España",True
"Piso en calle Calcio, Butarque, Madrid",villaverde,40.3508494,-3.6792046,"calle Calcio, Butarque, Madrid, España",True
"Piso en calle de José Ortega y Gasset, Lista, Madrid",barrio-de-salamanca,40.4297428,-3.6722267,"calle de José Ortega y Gasset, Lista, Madrid, España",True
"Piso en calle de Dulcinea, Cuatro Caminos, Madrid",tetuan,40.4911852,-3.3575305,"calle de Dulcinea, Madrid, España",True
"Piso en calle de Claudio Coello, Castellana, Madrid",barrio-de-salamanca,40.4352983,-3.685409,"calle de Claudio Coello, Castellana, Madrid, España",True
"Piso en Zofío, Madrid",usera,40.379209,-3.7152846,"Zofío, Madrid, España",True
"Piso en calle de María Zayas, Berruguete, Madrid",tetuan,40.4595376,-3.7014473,"calle de María Zayas, Berruguete, Madrid, España",True
"Ático en paseo de San Francisco de Sales, Vallehermoso, Madrid",chamberi,40.4420186,-3.7134849,"paseo de San Francisco de Sales, Vallehermoso, Madrid, España",True
"Piso en plaza de España, Malasaña-Universidad, Madrid",centro,40.42411,-3.7097362,"plaza de España, Malasaña-Universidad, Madrid, España",True
"Piso en calle Emilio Muñoz, 47, Simancas, Madrid",san-blas,40.4322043,-3.6273361,"calle Emilio Muñoz, 47, Simancas, Madrid, España",True
"Dúplex en calle Bergantín, Alameda de Osuna, Madrid",barajas,40.4573604,-3.586553,"calle Bergantín, Alameda de Osuna, Madrid, España",True
"Piso en calle del Águila, Palacio, Madrid",centro,40.4083256,-3.7135262,"calle del Águila, Palacio, Madrid, España",True
"Piso en avenida de la Reina Victoria, Vallehermoso, Madrid",chamberi,40.4469237,-3.7070692,"avenida de la Reina Victoria, Vallehermoso, Madrid, España",True
"Piso en calle de Beniferri, 51, San Cristóbal, Madrid",villaverde,40.3416121,-3.6934141,"San Cristóbal, Madrid, España",True
"Piso en calle de Jorge Juan, s/n, Recoletos, Madrid",barrio-de-salamanca,40.423866,-3.6861813,"calle de Jorge Juan, s/n, Recoletos, Madrid, España",True
"Piso en calle de Antonio López, Moscardó, Madrid",usera,40.3920387,-3.7040504,"calle de Antonio López, Moscardó, Madrid, España",True
"Piso en embajadores, Lavapiés-Embajadores, Madrid",centro,40.4052249,-3.7028935,"embajadores, Lavapiés-Embajadores, Madrid, España",True
"Piso en calle de Ricardo Beltrán y Rózpide, Zofío, Madrid",usera,40.3791108,-3.7180452,"calle de Ricardo Beltrán y Rózpide, Zofío, Madrid, España",True
"Piso en Adelfas, Madrid",retiro,40.4019026,-3.6709579,"Adelfas, Madrid, España",True
"Piso en calle de Carracedo, Campamento, Madrid",latina,40.3950297,-3.7706998,"calle de Carracedo, Campamento, Madrid, España",True
"Dúplex en Malasaña-Universidad, Madrid",centro,40.4251415,-3.7078316,"Malasaña-Universidad, Madrid, España",True
"Casa o chalet independiente en El Plantío, Madrid",moncloa,40.4350196,-3.719236,"moncloa, Madrid, España",True
"Piso en calle de Sor María de Ágreda, s/n, Ventas, Madrid",ciudad-lineal,40.430175,-3.6478917,"calle de Sor María de Ágreda, s/n, Ventas, Madrid, España",True
"Piso en calle del Doctor Sánchez, San Diego, Madrid",puente-de-vallecas,40.3922796,-3.6674239,"San Diego, Madrid, España",True
"Piso en calle del Mesón de Paredes, 26, Lavapiés-Embajadores, Madrid",centro,40.4104598,-3.7045279,"calle del Mesón de Paredes, 26, Lavapiés-Embajadores, Madrid, España",True
"Ático en Peñagrande, Madrid",fuencarral,40.4789641,-3.7258417,"Peñagrande, Madrid, España",True
"Dúplex en de Canillas, 102, Prosperidad, Madrid",chamartin,40.4417991,-3.6752208,"de Canillas, 102, Prosperidad, Madrid, España",True
"Ático en Chueca-Justicia, Madrid",centro,40.4182664,-3.6946869,"Chueca-Justicia, Madrid, España",True
"Piso en calle de Hortaleza, Chueca-Justicia, Madrid",centro,40.4229452,-3.699153,"calle de Hortaleza, Chueca-Justicia, Madrid, España",True
"Piso en calle de María Teresa Sáenz de Heredia, 32, Ventas, Madrid",ciudad-lineal,40.4247973,-3.6518929,"calle de María Teresa Sáenz de Heredia, 32, Ventas, Madrid, España",True
"Piso en plaza del Perú, 5, Nueva España, Madrid",chamartin,40.4600699,-3.676313,"plaza del Perú, 5, Nueva España, Madrid, España",True
"Piso en calle de Máiquez, Ibiza, Madrid",retiro,40.4207045,-3.6728881,"calle de Máiquez, Ibiza, Madrid, España",True
"Dúplex en Virgen de los Peligros, 9, Sol, Madrid",centro,40.4188142,-3.6997099,"Virgen de los Peligros, 9, Sol, Madrid, España",True
"Piso en calle Entre Arroyos, Media Legua, Madrid",moratalaz,40.4069281,-3.6531263,"calle Entre Arroyos, Media Legua, Madrid, España",True
"Piso en calle de Peña de la Atalaya, San Diego, Madrid",puente-de-vallecas,40.3857933,-3.6672615,"calle de Peña de la Atalaya, San Diego, Madrid, España",True
"Piso en Imperial, Madrid",arganzuela,40.4057995,-3.7186854,"Imperial, Madrid, España",True
"Piso en avenida de Burgos, 16, Castilla, Madrid",chamartin,40.4749841,-3.6755568,"avenida de Burgos, 16, Castilla, Madrid, España",True
"Piso en calle de Fernando el Santo, Almagro, Madrid",chamberi,40.4281415,-3.6925753,"calle de Fernando el Santo, Almagro, Madrid, España",True
"Piso en calle de Galileo, Arapiles, Madrid",chamberi,40.4362405,-3.7101185,"calle de Galileo, Arapiles, Madrid, España",True
"Piso en calle del Doctor Esquerdo, 17, Fuente del Berro, Madrid",barrio-de-salamanca,40.4261467,-3.6681839,"calle del Doctor Esquerdo, 17, Fuente del Berro, Madrid, España",True
"Piso en calle de la Industria, Puerta del Ángel, Madrid",latina,40.4100437,-3.7295213,"calle de la Industria, Puerta del Ángel, Madrid, España",True
"Piso en calle de Luis de Hoyos Sainz, Vinateros, Madrid",moratalaz,40.4059099,-3.6390563,"calle de Luis de Hoyos Sainz, Vinateros, Madrid, España",True
"Piso en calle de Mira el Sol, 11, Lavapiés-Embajadores, Madrid",centro,40.4073434,-3.705706,"calle de Mira el Sol, 11, Lavapiés-Embajadores, Madrid, España",True
"Piso en calle de Almansa, Bellas Vistas, Madrid",tetuan,40.449124,-3.7084169,"calle de Almansa, Bellas Vistas, Madrid, España",True
"Casa o chalet independiente en calle de Guerrero y Mendoza, Ciudad Jardín, Madrid",chamartin,40.4487115,-3.6738706,"Ciudad Jardín, Madrid, España",True
"Piso en callejón de los Ruíces, 2, San Diego, Madrid",puente-de-vallecas,40.3922796,-3.6674239,"San Diego, Madrid, España",True
"Piso en Palomeras Bajas, Madrid",puente-de-vallecas,40.3853367,-3.6579829,"Palomeras Bajas, Madrid, España",True
"Chalet pareado en calle Tercera, 5, Bernabéu-Hispanoamérica, Madrid",chamartin,40.453057,-3.6883531,"Bernabéu-Hispanoamérica, Madrid, España",True
"Piso en calle Corral de Almaguer, Ensanche de Vallecas - La Gavia, Madrid",villa-de-vallecas,40.3746109,-3.6060059,"calle Corral de Almaguer, Madrid, España",True
"Piso en calle de Carranza, Trafalgar, Madrid",chamberi,40.4293467,-3.7039408,"calle de Carranza, Trafalgar, Madrid, España",True
"Piso en calle de Maqueda, 149, Aluche, Madrid",latina,40.3908663,-3.7633093,"calle de Maqueda, 149, Aluche, Madrid, España",True
"Piso en calle del Pez, 7, Malasaña-Universidad, Madrid",centro,40.4232739,-3.7048448,"calle del Pez, 7, Malasaña-Universidad, Madrid, España",True
"Piso en calle de Ayala, 81, Goya, Madrid",barrio-de-salamanca,40.4273545,-3.6745985,"calle de Ayala, 81, Goya, Madrid, España",True
"Piso en calle de Monseñor Oscar Romero, Vista Alegre, Madrid",carabanchel,40.383406,-3.7560789,"calle de Monseñor Oscar Romero, Vista Alegre, Madrid, España",True
"Piso en calle Blasón, 13, Puerta Bonita, Madrid",carabanchel,40.3822484,-3.7404164,"calle Blasón, 13, Puerta Bonita, Madrid, España",True
"Piso en avenida de Bruselas, Guindalera, Madrid",barrio-de-salamanca,40.4425349,-3.6637678,"avenida de Bruselas, Guindalera, Madrid, España",True
"Piso en calle de Arroyo de Fontarrón, Fontarrón, Madrid",moratalaz,40.399161,-3.6462064,"Fontarrón, Madrid, España",True
"Piso en calle de Ruiz de Alarcón, Jerónimos, Madrid",retiro,40.4166611,-3.6915139,"calle de Ruiz de Alarcón, Jerónimos, Madrid, España",True
"Piso en paseo de la Castellana, Bernabéu-Hispanoamérica, Madrid",chamartin,40.4617183,-3.6892115,"paseo de la Castellana, Madrid, España",True
"Piso en calle de Francisco Paíno, 10, Abrantes, Madrid",carabanchel,40.3819072,-3.7287126,"calle de Francisco Paíno, 10, Abrantes, Madrid, España",True
"Piso en calle de Cipriano Sancho, Ventas, Madrid",ciudad-lineal,40.4316347,-3.6548867,"calle de Cipriano Sancho, Ventas, Madrid, España",True
"Piso en calle de Villagarcía, Lucero, Madrid",latina,40.4059504,-3.7549065,"calle de Villagarcía, Lucero, Madrid, España",True
"Piso en calle del Poeta Joan Maragall, Cuzco-Castillejos, Madrid",tetuan,40.4576651,-3.692133,"calle del Poeta Joan Maragall, Madrid, España",True
"Ático en calle de Canillas, Prosperidad, Madrid",chamartin,40.4438811,-3.6693756,"calle de Canillas, Prosperidad, Madrid, España",True
"Chalet pareado en calle de Argentona, Valdemarín, Madrid",moncloa,40.4675501,-3.7822569,"Valdemarín, Madrid, España",True
"Piso en calle Huerta de Villaverde, Villaverde Alto, Madrid",villaverde,40.3482631,-3.7112469,"calle Huerta de Villaverde, Villaverde Alto, Madrid, España",True
"Piso en plaza Mayor de Villaverde, Villaverde Alto, Madrid",villaverde,40.3471627,-3.7074611,"plaza Mayor de Villaverde, Villaverde Alto, Madrid, España",True
"Piso en avenida de Menéndez Pelayo, 109, Pacífico, Madrid",retiro,40.4057118,-3.6799796,"avenida de Menéndez Pelayo, 109, Pacífico, Madrid, España",True
"Piso en calle de Jesús y María, Lavapiés-Embajadores, Madrid",centro,40.4109715,-3.7032874,"calle de Jesús y María, Lavapiés-Embajadores, Madrid, España",True
"Chalet pareado en Concepción, Madrid",ciudad-lineal,40.4484305,-3.650495,"ciudad-lineal, Madrid, España",True
"Piso en avenida de Nuestra Señora de Fátima, Vista Alegre, Madrid",carabanchel,40.3807367,-3.7483197,"avenida de Nuestra Señora de Fátima, Vista Alegre, Madrid, España",True
"Piso en calle Montseny, 52, Numancia, Madrid",puente-de-vallecas,40.4003327,-3.6622468,"calle Montseny, 52, Numancia, Madrid, España",True
"Piso en calle del Capitán Blanco Argibay, Valdeacederas, Madrid",tetuan,40.4677612,-3.7065057,"calle del Capitán Blanco Argibay, Valdeacederas, Madrid, España",True
"Piso en calle de Medina del Campo, 18, Cuatro Vientos, Madrid",latina,40.3811155,-3.7869883,"calle de Medina del Campo, 18, Cuatro Vientos, Madrid, España",True
"Piso en calle de Santiago el Verde, Lavapiés-Embajadores, Madrid",centro,40.4074708,-3.7050004,"calle de Santiago el Verde, Lavapiés-Embajadores, Madrid, España",True
"Piso en paseo de la Florida, Casa de Campo, Madrid",moncloa,40.4251684,-3.7258472,"paseo de la Florida, Casa de Campo, Madrid, España",True
"Ático en calle de Luisa Fernanda, Argüelles, Madrid",moncloa,40.4307266,-3.7161715,"Argüelles, Madrid, España",True
"Chalet pareado en Teresa Orozco, 12, Aravaca, Madrid",moncloa,40.457749,-3.7827941,"Aravaca, Madrid, España",True
"Ático en Recoletos, Madrid",barrio-de-salamanca,40.4243637,-3.6857429,"Recoletos, Madrid, España",True
"Piso en calle de José María Pemán, San Isidro, Madrid",carabanchel,40.5929517,-3.9929529,"calle de José María Pemán, Madrid, España",True
"Piso en calle San Sinforiano, 4, Casco Histórico de Barajas, Madrid",barajas,40.473344,-3.5805448,"calle San Sinforiano, 4, Casco Histórico de Barajas, Madrid, España",True
"Piso en calle del Salitre, Lavapiés-Embajadores, Madrid",centro,40.4096007,-3.6983816,"calle del Salitre, Lavapiés-Embajadores, Madrid, España",True
"Piso en calle de San Faustino, Canillejas, Madrid",san-blas,40.4403208,-3.607225,"calle de San Faustino, Canillejas, Madrid, España",True
"Piso en calle Guadalaviar, 3, Villaverde Alto, Madrid",villaverde,40.3415173,-3.7115865,"Villaverde Alto, Madrid, España",True
"Dúplex en calle Esteban de Arteaga, 4, Comillas, Madrid",carabanchel,40.3954921,-3.7095847,"calle Esteban de Arteaga, 4, Comillas, Madrid, España",True
"Piso en calle de la Infanta Mercedes, 25, Cuatro Caminos, Madrid",tetuan,40.454266,-3.6992319,"calle de la Infanta Mercedes, 25, Cuatro Caminos, Madrid, España",True
"Piso en Orcasitas, Madrid",usera,40.3691419,-3.7098741,"Orcasitas, Madrid, España",True
"Ático en calle de Castiello de Jaca, 14, Las Tablas, Madrid",fuencarral,40.5083428,-3.6694346,"Las Tablas, Madrid, España",True
"Chalet pareado en Salvador, Madrid",san-blas,40.4275001,-3.615954,"san-blas, Madrid, España",True
"Piso en calle de González Feito, 12 de Octubre-Orcasur, Madrid",usera,40.3801349,-3.6954582,"calle de González Feito, Madrid, España",True
"Ático en calle de San Agustín, Huertas-Cortes, Madrid",centro,40.4145753,-3.6969206,"calle de San Agustín, Madrid, España",True
"Piso en Simancas, Madrid",san-blas,40.437583,-3.6248568,"Simancas, Madrid, España",True
"Piso en calle de Don Ramón de la Cruz, 90, Goya, Madrid",barrio-de-salamanca,40.4284608,-3.6719914,"calle de Don Ramón de la Cruz, 90, Goya, Madrid, España",True
"Ático en avenida Séptima, Rejas, Madrid",san-blas,40.4460853,-3.5980175,"avenida Séptima, Rejas, Madrid, España",True
"Piso en Antonia Ruiz Soro, 16, Guindalera, Madrid",barrio-de-salamanca,40.438736,-3.6651885,"Antonia Ruiz Soro, 16, Guindalera, Madrid, España",True
"Ático en calle Ramón Pulido, s/n, Peñagrande, Madrid",fuencarral,40.4755911,-3.7357161,"calle Ramón Pulido, Madrid, España",True
"Piso en calle de Marceliano Santa María, El Viso, Madrid",chamartin,40.4509261,-3.6884518,"calle de Marceliano Santa María, El Viso, Madrid, España",True
"Piso en calle Aldeanueva de la Vera, 38, Águilas, Madrid",latina,40.3805714,-3.776356,"calle Aldeanueva de la Vera, 38, Águilas, Madrid, España",True
"Piso en calle Gilena, 13, Villaverde Alto, Madrid",villaverde,40.343568,-3.7087444,"calle Gilena, 13, Villaverde Alto, Madrid, España",True
"Piso en calle de Palomares, Villaverde Alto, Madrid",villaverde,40.347287,-3.710185,"calle de Palomares, Villaverde Alto, Madrid, España",True
"Piso en calle Campezo, 9, Rejas, Madrid",san-blas,40.4472336,-3.5824421,"calle Campezo, 9, Rejas, Madrid, España",True
"Piso en Casco Histórico de Vallecas, Madrid",villa-de-vallecas,40.3773477,-3.6217118,"Casco Histórico de Vallecas, Madrid, España",True
"Piso en calle Lagunas de Neila, Villaverde Alto, Madrid",villaverde,40.3415173,-3.7115865,"Villaverde Alto, Madrid, España",True
"Ático en Valdeacederas, Madrid",tetuan,40.4679108,-3.7034226,"Valdeacederas, Madrid, España",True
"Casa o chalet independiente en Palomas, Madrid",hortaleza,40.4725491,-3.6425515,"hortaleza, Madrid, España",True
"Piso en calle Buendía, 68, Entrevías, Madrid",puente-de-vallecas,40.3826302,-3.6711792,"calle Buendía, 68, Entrevías, Madrid, España",True
"Piso en calle de Quintana, Argüelles, Madrid",moncloa,40.4281282,-3.7168026,"calle de Quintana, Argüelles, Madrid, España",True
"Piso en avenida de la Ciudad de Barcelona, Adelfas, Madrid",retiro,40.4010869,-3.6744976,"avenida de la Ciudad de Barcelona, Adelfas, Madrid, España",True
"Piso en calle del Alcalde Sainz de Baranda, Ibiza, Madrid",retiro,40.4166603,-3.6729116,"calle del Alcalde Sainz de Baranda, Ibiza, Madrid, España",True
"Piso en calle del Barco, Malasaña-Universidad, Madrid",centro,40.4223358,-3.7025511,"calle del Barco, Malasaña-Universidad, Madrid, España",True
"Estudio en calle de la Arquitectura, 234, Acacias, Madrid",arganzuela,40.2878704,-3.7553713,"calle de la Arquitectura, 234, Madrid, España",True
"Piso en calle de la Virgen del Castañar, 3, Concepción, Madrid",ciudad-lineal,40.4382057,-3.6495784,"Concepción, Madrid, España",True
"Ático en paseo de los Melancólicos, 18, Imperial, Madrid",arganzuela,40.4050175,-3.7209766,"paseo de los Melancólicos, 18, Imperial, Madrid, España",True
"Piso en calle de Juan Bravo, Lista, Madrid",barrio-de-salamanca,40.432448,-3.6772827,"calle de Juan Bravo, Lista, Madrid, España",True
"Piso en calle del Vizconde de Arlessón, San Diego, Madrid",puente-de-vallecas,40.3832996,-3.6667636,"calle del Vizconde de Arlessón, San Diego, Madrid, España",True
"Piso en calle Transmonte, 4, Arcos, Madrid",san-blas,40.421392,-3.6184184,"Arcos, Madrid, España",True
"Piso en calle de la Hacienda de Pavones, Vinateros, Madrid",moratalaz,40.4022803,-3.6394198,"calle de la Hacienda de Pavones, Vinateros, Madrid, España",True
"Piso en calle Moratín, 3, Huertas-Cortes, Madrid",centro,40.4124041,-3.6981047,"calle Moratín, 3, Madrid, España",True
"Piso en plaza Angel de Carbajo, Cuzco-Castillejos, Madrid",tetuan,40.4624346,-3.6940969,"plaza Angel de Carbajo, Madrid, España",True
"Estudio en calle de Santa Engracia, 49, Trafalgar, Madrid",chamberi,40.4331414,-3.6981508,"calle de Santa Engracia, 49, Trafalgar, Madrid, España",True
"Piso en paseo de Extremadura, Puerta del Ángel, Madrid",latina,40.4113021,-3.7349769,"paseo de Extremadura, Puerta del Ángel, Madrid, España",True
"Piso en calle San Moisés, San Diego, Madrid",puente-de-vallecas,40.382534,-3.6652336,"calle San Moisés, San Diego, Madrid, España",True
"Piso en calle la Escuela de Vallecas, s/n, Ensanche de Vallecas - La Gavia, Madrid",villa-de-vallecas,40.3581027,-3.590023,"calle la Escuela de Vallecas, Madrid, España",True
"Piso en calle Zarapitos, 26, Puerta Bonita, Madrid",carabanchel,40.3777764,-3.7426485,"calle Zarapitos, 26, Puerta Bonita, Madrid, España",True
"Piso en calle de Tinamús, Opañel, Madrid",carabanchel,40.3887303,-3.7225284,"calle de Tinamús, Opañel, Madrid, España",True
"Piso en calle de García de Paredes, 16, Trafalgar, Madrid",chamberi,40.4368575,-3.701605,"calle de García de Paredes, 16, Trafalgar, Madrid, España",True
"Piso en calle Del Hachero, 33, San Diego, Madrid",puente-de-vallecas,40.3922796,-3.6674239,"San Diego, Madrid, España",True
"Piso en calle Pastrana, Salvador, Madrid",san-blas,40.440058,-3.6348048,"calle Pastrana, Salvador, Madrid, España",True
"Piso en calle Belisana, 5, Colina, Madrid",ciudad-lineal,40.4578571,-3.6565509,"calle Belisana, 5, Colina, Madrid, España",True
"Piso en calle del Desengaño, Malasaña-Universidad, Madrid",centro,40.4209271,-3.7034287,"calle del Desengaño, Madrid, España",True
"Dúplex en calle Albaricoque, 11, Buena Vista, Madrid",carabanchel,40.6398214,-4.0201408,"calle Albaricoque, 11, Madrid, España",True
"Piso en calle de Mesonero Romanos, Sol, Madrid",centro,40.4194588,-3.7043786,"calle de Mesonero Romanos, Sol, Madrid, España",True
"Piso en calle de Santo Domingo de Silos, El Viso, Madrid",chamartin,40.4512563,-3.6877165,"calle de Santo Domingo de Silos, El Viso, Madrid, España",True
"Piso en calle Chantada, 42, Peñagrande, Madrid",fuencarral,40.4737433,-3.7174235,"calle Chantada, 42, Peñagrande, Madrid, España",True
"Piso en calle De Silvio Abad, Zofío, Madrid",usera,40.3809201,-3.7137434,"calle De Silvio Abad, Zofío, Madrid, España",True
"Ático en calle Helsinki, Rosas, Madrid",san-blas,40.4269077,-3.6033615,"calle Helsinki, Rosas, Madrid, España",True
"Piso en calle de Arriaza, Argüelles, Madrid",moncloa,40.4208355,-3.7157792,"calle de Arriaza, Argüelles, Madrid, España",True
"Piso en de la Bolsa, Sol, Madrid",centro,40.41492,-3.704772,"de la Bolsa, Sol, Madrid, España",True
"Piso en calle de Donoso Cortés, 20, Arapiles, Madrid",chamberi,40.4361882,-3.7076218,"calle de Donoso Cortés, 20, Arapiles, Madrid, España",True
"Piso en calle de la Fuente del Berro, Goya, Madrid",barrio-de-salamanca,40.4238499,-3.6709999,"calle de la Fuente del Berro, Goya, Madrid, España",True
"Piso en Gaztambide, Madrid",chamberi,40.4349358,-3.7147092,"Gaztambide, Madrid, España",True
"Casa o chalet independiente en calle Araiz, Aravaca, Madrid",moncloa,40.457749,-3.7827941,"Aravaca, Madrid, España",True
"Piso en calle de Castelló, 117, Castellana, Madrid",barrio-de-salamanca,40.4371383,-3.6807213,"calle de Castelló, 117, Castellana, Madrid, España",True
"Piso en calle del Alcalde Sainz de Baranda, 20, Ibiza, Madrid",retiro,40.4164736,-3.6758892,"calle del Alcalde Sainz de Baranda, 20, Ibiza, Madrid, España",True
"Dúplex en calle de Sierra Gádor, Casco Histórico de Vallecas, Madrid",villa-de-vallecas,40.3773477,-3.6217118,"Casco Histórico de Vallecas, Madrid, España",True
"Piso en calle de Don Ramón de la Cruz, Goya, Madrid",barrio-de-salamanca,40.4287653,-3.6768509,"calle de Don Ramón de la Cruz, Goya, Madrid, España",True
"Piso en calle de Génova, 15, Almagro, Madrid",chamberi,40.4268284,-3.6937173,"calle de Génova, 15, Almagro, Madrid, España",True
"Piso en avenida del Cardenal Herrera Oria, 169, Pilar, Madrid",fuencarral,40.4834472,-3.7108825,"avenida del Cardenal Herrera Oria, 169, Pilar, Madrid, España",True
"Piso en calle de Joaquín María López, Arapiles, Madrid",chamberi,40.4374358,-3.7082161,"calle de Joaquín María López, Arapiles, Madrid, España",True
"Ático en avenida de la Gran Vía del Sureste, 25, Ensanche de Vallecas - La Gavia, Madrid",villa-de-vallecas,40.371129,-3.6135502,"Ensanche de Vallecas - La Gavia, Madrid, España",True
"Piso en calle del Segre, 29, El Viso, Madrid",chamartin,40.4508953,-3.6839107,"calle del Segre, 29, El Viso, Madrid, España",True
"Dúplex en Cuzco-Castillejos, Madrid",tetuan,40.4594841,-3.6900166,"Cuzco-Castillejos, Madrid, España",True
"Chalet pareado en Valdemarín, Madrid",moncloa,40.4350196,-3.719236,"moncloa, Madrid, España",True
"Piso en de Embajadores, 89, Delicias, Madrid",arganzuela,40.400325,-3.6986081,"de Embajadores, 89, Delicias, Madrid, España",True
"Piso en calle del Doctor Esquerdo, Fuente del Berro, Madrid",barrio-de-salamanca,40.4240604,-3.668676,"calle del Doctor Esquerdo, Fuente del Berro, Madrid, España",True
"Piso en avenida de la Ciudad de Barcelona, Pacífico, Madrid",retiro,40.4020569,-3.6763274,"avenida de la Ciudad de Barcelona, Pacífico, Madrid, España",True
"Piso en calle de Maldonado, Lista, Madrid",barrio-de-salamanca,40.433505,-3.6757681,"calle de Maldonado, Lista, Madrid, España",True
"Piso en calle de la Condesa de Venadito, San Pascual, Madrid",ciudad-lineal,40.4447994,-3.6531944,"calle de la Condesa de Venadito, San Pascual, Madrid, España",True
"Piso en calle de Huesa, 5, Entrevías, Madrid",puente-de-vallecas,40.3790449,-3.6717573,"Entrevías, Madrid, España",True
"Ático en calle de Benigno Soto, Ciudad Jardín, Madrid",chamartin,40.4480001,-3.6745918,"calle de Benigno Soto, Ciudad Jardín, Madrid, España",True
"Piso en calle del Pico Cebollera, San Diego, Madrid",puente-de-vallecas,40.3922796,-3.6674239,"San Diego, Madrid, España",True
"Dúplex en calle de La Bañeza, Peñagrande, Madrid",fuencarral,40.4754856,-3.7174302,"calle de La Bañeza, Peñagrande, Madrid, España",True
"Dúplex en calle Alonso Castrillo, Cuzco-Castillejos, Madrid",tetuan,40.4588696,-3.6980891,"calle Alonso Castrillo, Madrid, España",True
"Piso en calle de Mesena, 80, Pinar del Rey, Madrid",hortaleza,40.465263,-3.6618276,"calle de Mesena, 80, Pinar del Rey, Madrid, España",True
"Piso en Fernández Caro, 7, Concepción, Madrid",ciudad-lineal,40.443828,-3.6460444,"Fernández Caro, 7, Concepción, Madrid, España",True
"Piso en Paloma, Palacio, Madrid",centro,40.4083057,-3.7116203,"Paloma, Palacio, Madrid, España",True
"Piso en calle de la Povedilla, Goya, Madrid",barrio-de-salamanca,40.4237573,-3.6699301,"calle de la Povedilla, Goya, Madrid, España",True
"Piso en calle Germán Pérez Carrasco, Quintana, Madrid",ciudad-lineal,40.4356576,-3.6471022,"Quintana, Madrid, España",True
"Piso en calle de Alfredo Castro Camba, San Diego, Madrid",puente-de-vallecas,40.3864551,-3.6694716,"calle de Alfredo Castro Camba, San Diego, Madrid, España",True
"Piso en calle de Orense, 69, Cuzco-Castillejos, Madrid",tetuan,40.4588114,-3.6946848,"calle de Orense, 69, Madrid, España",True
"Piso en Vallehermoso, Madrid",chamberi,40.4431893,-3.7108233,"Vallehermoso, Madrid, España",True
"Dúplex en Mirasierra, Madrid",fuencarral,40.4906361,-3.7161379,"Mirasierra, Madrid, España",True
"Estudio en calle del Salitre, Lavapiés-Embajadores, Madrid",centro,40.4096007,-3.6983816,"calle del Salitre, Lavapiés-Embajadores, Madrid, España",True
"Piso en calle Fernando Poo, Chopera, Madrid",arganzuela,40.3972023,-3.6998202,"calle Fernando Poo, Chopera, Madrid, España",True
"Piso en paseo de la Castellana, Cuzco-Castillejos, Madrid",tetuan,40.4617183,-3.6892115,"paseo de la Castellana, Madrid, España",True
"Piso en calle de Tomás López, Goya, Madrid",barrio-de-salamanca,40.4263993,-3.6697637,"calle de Tomás López, Goya, Madrid, España",True
"Piso en calle de Manuela Malasaña, 9, Malasaña-Universidad, Madrid",centro,40.4285447,-3.7030754,"calle de Manuela Malasaña, 9, Malasaña-Universidad, Madrid, España",True
"Piso en calle del Monte Esquinza, Almagro, Madrid",chamberi,40.4289009,-3.6920067,"calle del Monte Esquinza, Almagro, Madrid, España",True
"Piso en calle de San Marcelo, Ventas, Madrid",ciudad-lineal,40.4273493,-3.6562823,"calle de San Marcelo, Ventas, Madrid, España",True
"Piso en calle del Olivar, s/n, Lavapiés-Embajadores, Madrid",centro,40.4106656,-3.7016757,"calle del Olivar, s/n, Lavapiés-Embajadores, Madrid, España",True
"Piso en Pinar del Rey, Madrid",hortaleza,40.4724696,-3.6489613,"Pinar del Rey, Madrid, España",True
"Piso en calle de Edgar Neville, 21 b, Cuatro Caminos, Madrid",tetuan,40.4494322,-3.6968368,"calle de Edgar Neville, 21 b, Cuatro Caminos, Madrid, España",True
"Piso en calle de Velázquez, 117, Castellana, Madrid",barrio-de-salamanca,40.436986,-3.6833155,"calle de Velázquez, 117, Castellana, Madrid, España",True
"Piso en Jardín de San Federico, 3, Goya, Madrid",barrio-de-salamanca,40.5559291,-3.6371552,"Jardín de San Federico, 3, Madrid, España",True
"Ático en Arapiles, Madrid",chamberi,40.4347638,-3.7083155,"Arapiles, Madrid, España",True
"Piso en calle Comandante Benítez, Chopera, Madrid",arganzuela,40.3976586,-3.6989158,"calle Comandante Benítez, Chopera, Madrid, España",True
"Piso en calle de la Princesa de Éboli, 43, Sanchinarro, Madrid",hortaleza,40.2415405,-3.7059737,"calle de la Princesa de Éboli, 43, Madrid, España",True
"Casa o chalet independiente en avenida del Papa Negro, 1, Conde Orgaz-Piovera, Madrid",hortaleza,40.4566911,-3.6475883,"Conde Orgaz-Piovera, Madrid, España",True
"Piso en calle de la Princesa, Gaztambide, Madrid",chamberi,40.432467,-3.7175195,"calle de la Princesa, Gaztambide, Madrid, España",True
"Piso en calle de Finisterre, La Paz, Madrid",fuencarral,40.4790072,-3.701611,"calle de Finisterre, La Paz, Madrid, España",True
"Chalet pareado en calle de las Islas de Cabo Verde, Peñagrande, Madrid",fuencarral,40.4789641,-3.7258417,"Peñagrande, Madrid, España",True
"Casa o chalet independiente en Valdemarín, Madrid",moncloa,40.4350196,-3.719236,"moncloa, Madrid, España",True
"Ático en San Vicente Ferrer, 74, Malasaña-Universidad, Madrid",centro,40.426208,-3.7080137,"San Vicente Ferrer, 74, Malasaña-Universidad, Madrid, España",True
"Chalet pareado en Pinar del Rey, Madrid",hortaleza,40.4725491,-3.6425515,"hortaleza, Madrid, España",True
"Piso en calle de los Yébenes, Aluche, Madrid",latina,40.3941479,-3.7520208,"calle de los Yébenes, Aluche, Madrid, España",True
"Piso en calle de El Yesero, Palomeras sureste, Madrid",puente-de-vallecas,40.3807967,-3.631106,"calle de El Yesero, Palomeras sureste, Madrid, España",True
"Estudio en calle del Canal del Bósforo, 60, Canillejas, Madrid",san-blas,40.4410129,-3.6098115,"calle del Canal del Bósforo, 60, Canillejas, Madrid, España",True
"Piso en calle de la Hermandad, Abrantes, Madrid",carabanchel,40.3832312,-3.7279198,"calle de la Hermandad, Abrantes, Madrid, España",True
"Piso en calle de Siderurgia, 11, Amposta, Madrid",san-blas,40.4258976,-3.6240116,"calle de Siderurgia, 11, Amposta, Madrid, España",True
"Chalet pareado en paseo del Marqués de Monistrol, 100, Casa de Campo, Madrid",moncloa,40.4241907,-3.755858,"Casa de Campo, Madrid, España",True
"Ático en calle de Medina del Campo, 18, Cuatro Vientos, Madrid",latina,40.3811155,-3.7869883,"calle de Medina del Campo, 18, Cuatro Vientos, Madrid, España",True
"Piso en calle de Trujillos, 7, Sol, Madrid",centro,40.4187834,-3.7074757,"calle de Trujillos, 7, Sol, Madrid, España",True
"Casa o chalet independiente en calle del Valle de Arán, Ciudad Universitaria, Madrid",moncloa,40.4438005,-3.7264206,"Ciudad Universitaria, Madrid, España",True
"Chalet adosado en avenida del Papa Negro, Conde Orgaz-Piovera, Madrid",hortaleza,40.4566911,-3.6475883,"Conde Orgaz-Piovera, Madrid, España",True
"Piso en calle Litos, Los Ángeles, Madrid",villaverde,40.3492503,-3.7005817,"calle Litos, Los Ángeles, Madrid, España",True
"Piso en calle del Marqués de Portugalete, San Pascual, Madrid",ciudad-lineal,40.4460004,-3.645644,"calle del Marqués de Portugalete, Madrid, España",True
"Casa o chalet independiente en calle de la Bahía de Santander, Campo de las Naciones-Corralejos, Madrid",barajas,40.4733176,-3.5798446,"barajas, Madrid, España",True
"Piso en paseo de Eduardo Dato, Almagro, Madrid",chamberi,40.4330973,-3.6898915,"paseo de Eduardo Dato, Almagro, Madrid, España",True
"Piso en Arapiles, Madrid",chamberi,40.4347638,-3.7083155,"Arapiles, Madrid, España",True
"Piso en calle de Tetuán, 20, Sol, Madrid",centro,40.4176665,-3.7034359,"calle de Tetuán, 20, Sol, Madrid, España",True
"Piso en calle del Condado de Treviño, 7, Costillares, Madrid",ciudad-lineal,40.4788343,-3.6730965,"calle del Condado de Treviño, 7, Costillares, Madrid, España",True
"Piso en calle del Príncipe de Vergara, Recoletos, Madrid",barrio-de-salamanca,40.4282278,-3.6799562,"calle del Príncipe de Vergara, Recoletos, Madrid, España",True
"Ático en calle del Príncipe de Vergara, Lista, Madrid",barrio-de-salamanca,40.4309043,-3.6796189,"calle del Príncipe de Vergara, Lista, Madrid, España",True
"Piso en Entrevías, Madrid",puente-de-vallecas,40.3790449,-3.6717573,"Entrevías, Madrid, España",True
"Piso en calle de García de Paredes, Trafalgar, Madrid",chamberi,40.437111,-3.7036122,"calle de García de Paredes, Trafalgar, Madrid, España",True
"Piso en calle de Carlos Arniches, 31, Lavapiés-Embajadores, Madrid",centro,40.4071449,-3.7081637,"calle de Carlos Arniches, 31, Madrid, España",True
"Piso en calle de Santa Susana, Pinar del Rey, Madrid",hortaleza,40.4766488,-3.6465015,"calle de Santa Susana, Pinar del Rey, Madrid, España",True
"Piso en calle del Toboso, San Isidro, Madrid",carabanchel,40.3011437,-3.4465274,"calle del Toboso, Madrid, España",True
"Piso en calle de Larra, Chueca-Justicia, Madrid",centro,40.4276824,-3.7001962,"calle de Larra, Chueca-Justicia, Madrid, España",True
"Piso en Isabel Clara Eugenia, Sanchinarro, Madrid",hortaleza,40.49161,-3.6496983,"Isabel Clara Eugenia, Sanchinarro, Madrid, España",True
"Piso en General Pardiñas, Lista, Madrid",barrio-de-salamanca,40.4329833,-3.6779681,"General Pardiñas, Lista, Madrid, España",True
"Piso en calle de José Donoso, 4, Sanchinarro, Madrid",hortaleza,40.5007125,-3.6525687,"calle de José Donoso, 4, Madrid, España",True
"Estudio en calle de la Manzana, 15, Malasaña-Universidad, Madrid",centro,40.4239515,-3.708525,"calle de la Manzana, 15, Malasaña-Universidad, Madrid, España",True
"Ático en calle de Oslo, Rosas, Madrid",san-blas,40.4270722,-3.6022388,"calle de Oslo, Rosas, Madrid, España",True
"Piso en calle del Arroyo de la Media Legua, Media Legua, Madrid",moratalaz,40.4153125,-3.6507524,"calle del Arroyo de la Media Legua, Media Legua, Madrid, España",True
"Casa o chalet independiente en calle Turégano, Ciudad Universitaria, Madrid",moncloa,40.4438005,-3.7264206,"Ciudad Universitaria, Madrid, España",True
"Piso en calle del General Palanca, Delicias, Madrid",arganzuela,40.3993058,-3.6961987,"calle del General Palanca, Delicias, Madrid, España",True
"Piso en calle de los Cabestreros, Lavapiés-Embajadores, Madrid",centro,40.4092511,-3.7046531,"calle de los Cabestreros, Lavapiés-Embajadores, Madrid, España",True
"Piso en calle Arturo Soria, 98, San Pascual, Madrid",ciudad-lineal,40.4475024,-3.6498765,"calle Arturo Soria, 98, San Pascual, Madrid, España",True
"Piso en calle Marcelino Castillo, Aluche, Madrid",latina,40.3922702,-3.7431706,"calle Marcelino Castillo, Aluche, Madrid, España",True
"Piso en calle del Molino de Viento, Malasaña-Universidad, Madrid",centro,40.4236284,-3.7033197,"calle del Molino de Viento, Malasaña-Universidad, Madrid, España",True
"Piso en calle de Vergara, 10, Palacio, Madrid",centro,40.41748,-3.7111588,"calle de Vergara, 10, Palacio, Madrid, España",True
"Piso en calle de Arturo Soria, Quintana, Madrid",ciudad-lineal,40.4380515,-3.6380157,"calle de Arturo Soria, Quintana, Madrid, España",True
"Piso en calle de Arturo Soria, Colina, Madrid",ciudad-lineal,40.4566874,-3.6571844,"calle de Arturo Soria, Colina, Madrid, España",True
"Dúplex en calle Navas del Rey, Puerta del Ángel, Madrid",latina,40.4081258,-3.7368193,"calle Navas del Rey, Puerta del Ángel, Madrid, España",True
"Dúplex en calle Narváez, 30, Ibiza, Madrid",retiro,40.4182575,-3.6762463,"calle Narváez, 30, Ibiza, Madrid, España",True
"Ático en paseo de San Francisco de Sales, 15, Vallehermoso, Madrid",chamberi,40.4408374,-3.7155694,"paseo de San Francisco de Sales, 15, Vallehermoso, Madrid, España",True
"Dúplex en Fontarrón, Madrid",moratalaz,40.399161,-3.6462064,"Fontarrón, Madrid, España",True
"Ático en crisantemo, Valdeacederas, Madrid",tetuan,40.4652481,-3.7061973,"crisantemo, Valdeacederas, Madrid, España",True
"Piso en calle de Arriaza, 14, Argüelles, Madrid",moncloa,40.4216561,-3.7159767,"calle de Arriaza, 14, Argüelles, Madrid, España",True
"Piso en calle de Alcántara, Lista, Madrid",barrio-de-salamanca,40.4288272,-3.7219617,"calle de Alcántara, Madrid, España",True
"Piso en calle del General Oráa, 36, Castellana, Madrid",barrio-de-salamanca,40.4362438,-3.6875675,"calle del General Oráa, 36, Castellana, Madrid, España",True
"Piso en avenida del Cardenal Herrera Oria, Tres Olivos - Valverde, Madrid",fuencarral,40.4837231,-3.71216,"avenida del Cardenal Herrera Oria, Madrid, España",True
"Ático en Trafalgar, Madrid",chamberi,40.4330613,-3.7010182,"Trafalgar, Madrid, España",True
"Piso en calle de González Sola, Ventilla-Almenara, Madrid",tetuan,40.4668051,-3.695274,"calle de González Sola, Madrid, España",True
"Piso en calle de Vicente Carballal, Butarque, Madrid",villaverde,40.3416545,-3.674719,"Butarque, Madrid, España",True
"Chalet adosado en calle Julián Camarillo, 56, Simancas, Madrid",san-blas,40.437583,-3.6248568,"Simancas, Madrid, España",True
"Dúplex en calle de Calatrava, Palacio, Madrid",centro,40.4092561,-3.7113395,"calle de Calatrava, Palacio, Madrid, España",True
"Piso en calle del Príncipe de Vergara, El Viso, Madrid",chamartin,40.4391092,-3.6790675,"calle del Príncipe de Vergara, El Viso, Madrid, España",True
"Piso en calle de Moratalla, Pinar del Rey, Madrid",hortaleza,40.4730327,-3.6554613,"calle de Moratalla, Pinar del Rey, Madrid, España",True
"Piso en Quintana, Madrid",ciudad-lineal,40.4356576,-3.6471022,"Quintana, Madrid, España",True
"Piso en calle de Iriarte, Guindalera, Madrid",barrio-de-salamanca,40.4409395,-3.4606243,"calle de Iriarte, Madrid, España",True
"Piso en calle de Miguel Arredondo, s/n, Chopera, Madrid",arganzuela,40.3950981,-3.6994819,"Chopera, Madrid, España",True
"Piso en calle de Alejandro Sánchez, Opañel, Madrid",carabanchel,40.39011,-3.7247168,"calle de Alejandro Sánchez, Opañel, Madrid, España",True
"Dúplex en Villaverde Alto, Madrid",villaverde,40.3415173,-3.7115865,"Villaverde Alto, Madrid, España",True
"Piso en calle de Cea Bermúdez, Vallehermoso, Madrid",chamberi,40.4389981,-3.7114092,"calle de Cea Bermúdez, Vallehermoso, Madrid, España",True
"Piso en calle de Ponferrada, Pilar, Madrid",fuencarral,40.4747612,-3.7138868,"calle de Ponferrada, Pilar, Madrid, España",True
"Piso en Carrera de San Jerónimo, Sol, Madrid",centro,40.4166759,-3.7013516,"Carrera de San Jerónimo, Sol, Madrid, España",True
"Piso en calle de Sierra Carbonera, San Diego, Madrid",puente-de-vallecas,40.391631,-3.6643168,"calle de Sierra Carbonera, San Diego, Madrid, España",True
"Chalet adosado en calle de las Celindas, 16, Bernabéu-Hispanoamérica, Madrid",chamartin,40.453057,-3.6883531,"Bernabéu-Hispanoamérica, Madrid, España",True
"Piso en calle de Emilio Ortuño, Numancia, Madrid",puente-de-vallecas,40.3986776,-3.6659297,"calle de Emilio Ortuño, Numancia, Madrid, España",True
"Piso en calle de la Cava Alta, Palacio, Madrid",centro,40.4116282,-3.71044,"calle de la Cava Alta, Palacio, Madrid, España",True
"Piso en calle de Colón, Malasaña-Universidad, Madrid",centro,40.4238057,-3.7010703,"calle de Colón, Malasaña-Universidad, Madrid, España",True
"Estudio en avenida del Papa Negro, Conde Orgaz-Piovera, Madrid",hortaleza,40.459727,-3.6259305,"avenida del Papa Negro, Madrid, España",True
"Piso en plaza Geólogos, Quintana, Madrid",ciudad-lineal,40.4348316,-3.6494231,"plaza Geólogos, Quintana, Madrid, España",True
"Piso en acceso Parque de la Elipa, Media Legua, Madrid",moratalaz,40.4159891,-3.6560037,"acceso Parque de la Elipa, Media Legua, Madrid, España",True
"Piso en calle de Canillas, Prosperidad, Madrid",chamartin,40.4417991,-3.6752208,"calle de Canillas, Prosperidad, Madrid, España",True
"Piso en calle de Albares de la Ribera, Puerta Bonita, Madrid",carabanchel,40.3743082,-3.7412908,"calle de Albares de la Ribera, Puerta Bonita, Madrid, España",True
"Piso en calle de Gonzalo de Córdoba, Trafalgar, Madrid",chamberi,40.4323503,-3.7026857,"calle de Gonzalo de Córdoba, Trafalgar, Madrid, España",True
"Ático en calle de Cea Bermúdez, 63, Vallehermoso, Madrid",chamberi,40.4391727,-3.7146511,"calle de Cea Bermúdez, 63, Vallehermoso, Madrid, España",True
"Estudio en calle de los Fundadores, 19, Fuente del Berro, Madrid",barrio-de-salamanca,40.424977,-3.6636998,"Fuente del Berro, Madrid, España",True
"Piso en calle de las Mártires Concepcionistas, Lista, Madrid",barrio-de-salamanca,40.4326938,-3.6745087,"Lista, Madrid, España",True
"Piso en Estrella, Madrid",retiro,40.4117618,-3.6669977,"Estrella, Madrid, España",True
"Piso en calle San Gumersindo, 22, Ventas, Madrid",ciudad-lineal,40.430473,-3.6520411,"calle San Gumersindo, 22, Ventas, Madrid, España",True
"Estudio en calle de Toledo, Lavapiés-Embajadores, Madrid",centro,40.4097618,-3.7096318,"calle de Toledo, Madrid, España",True
"Piso en calle Angelillo, Palomeras sureste, Madrid",puente-de-vallecas,40.3816979,-3.6451063,"calle Angelillo, Palomeras sureste, Madrid, España",True
"Piso en avenida de Abrantes, Abrantes, Madrid",carabanchel,40.3751429,-3.735283,"avenida de Abrantes, Abrantes, Madrid, España",True
"Piso en calle Serrano, Castellana, Madrid",barrio-de-salamanca,40.4279245,-3.6873778,"calle Serrano, Castellana, Madrid, España",True
"Piso en calle de Herminio Puertas, Puerta del Ángel, Madrid",latina,40.4092285,-3.7369797,"calle de Herminio Puertas, Puerta del Ángel, Madrid, España",True
"Piso en calle arturo soria, 224, Atalaya, Madrid",ciudad-lineal,40.4624409,-3.6641389,"calle arturo soria, 224, Atalaya, Madrid, España",True
"Piso en calle de Anoeta, Los Ángeles, Madrid",villaverde,40.35237,-3.6996347,"calle de Anoeta, Los Ángeles, Madrid, España",True
"Piso en avenida de San Diego, San Diego, Madrid",puente-de-vallecas,40.3897912,-3.67161,"avenida de San Diego, San Diego, Madrid, España",True
"Piso en calle de Fernández de la Hoz, Almagro, Madrid",chamberi,40.4339284,-3.6949194,"calle de Fernández de la Hoz, Almagro, Madrid, España",True
"Piso en calle del Doctor Bellido, s/n, San Diego, Madrid",puente-de-vallecas,40.3922796,-3.6674239,"San Diego, Madrid, España",True
"Piso en calle del General Díaz Porlier, s/n, Lista, Madrid",barrio-de-salamanca,40.4328794,-3.6765762,"calle del General Díaz Porlier, s/n, Lista, Madrid, España",True
"Piso en calle del Campo de la Paloma, 52, Palomeras sureste, Madrid",puente-de-vallecas,40.383033,-3.6468996,"calle del Campo de la Paloma, 52, Palomeras sureste, Madrid, España",True
"Ático en calle de Antonio Acuña, Goya, Madrid",barrio-de-salamanca,40.4225675,-3.6788543,"calle de Antonio Acuña, Goya, Madrid, España",True
"Piso en calle de San Anselmo, Palomeras Bajas, Madrid",puente-de-vallecas,40.3853367,-3.6579829,"Palomeras Bajas, Madrid, España",True
"Piso en calle de Virgen de Lluc, 120, Quintana, Madrid",ciudad-lineal,40.4356576,-3.6471022,"Quintana, Madrid, España",True
"Ático en calle de Guzmán el Bueno, Gaztambide, Madrid",chamberi,40.4353849,-3.7131442,"calle de Guzmán el Bueno, Gaztambide, Madrid, España",True
"Ático en Simancas, Madrid",san-blas,40.437583,-3.6248568,"Simancas, Madrid, España",True
"Piso en calle de la Imagen, San Diego, Madrid",puente-de-vallecas,40.5545091,-3.3297133,"calle de la Imagen, Madrid, España",True
"Piso en calle Esperanza Sánchez Carrascosa, Valdeacederas, Madrid",tetuan,40.4679108,-3.7034226,"Valdeacederas, Madrid, España",True
"Piso en González Soto, 21, Numancia, Madrid",puente-de-vallecas,40.4004328,-3.6632569,"González Soto, 21, Numancia, Madrid, España",True
"Piso en calle de Antonio Toledano, 9, Fuente del Berro, Madrid",barrio-de-salamanca,40.424977,-3.6636998,"Fuente del Berro, Madrid, España",True
"Piso en calle de San Andrés, Malasaña-Universidad, Madrid",centro,40.4272834,-3.7036098,"calle de San Andrés, Malasaña-Universidad, Madrid, España",True
"Piso en calle de la Sombrerería, Lavapiés-Embajadores, Madrid",centro,40.407678,-3.6991465,"calle de la Sombrerería, Lavapiés-Embajadores, Madrid, España",True
"Piso en calle de Embajadores, Delicias, Madrid",arganzuela,40.3978494,-3.6971907,"calle de Embajadores, Delicias, Madrid, España",True
"Piso en calle de Fernán González, Ibiza, Madrid",retiro,40.4186801,-3.6746012,"calle de Fernán González, Ibiza, Madrid, España",True
"Piso en avenida Séptima, Rejas, Madrid",san-blas,40.4460853,-3.5980175,"avenida Séptima, Rejas, Madrid, España",True
"Piso en calle de Goya, 25, Recoletos, Madrid",barrio-de-salamanca,40.4254258,-3.6856797,"calle de Goya, 25, Recoletos, Madrid, España",True
"Piso en calle del Marqués de Jura Real, 21, Comillas, Madrid",carabanchel,40.391314,-3.7099963,"calle del Marqués de Jura Real, 21, Comillas, Madrid, España",True
"Piso en calle la Escuela de Vallecas, 58, Ensanche de Vallecas - La Gavia, Madrid",villa-de-vallecas,40.3581027,-3.590023,"calle la Escuela de Vallecas, 58, Madrid, España",True
"Piso en calle de Jorge Juan, Goya, Madrid",barrio-de-salamanca,40.4235444,-3.6794326,"calle de Jorge Juan, Goya, Madrid, España",True
